id,name,department_id,availability,lat,lon
100000,Дворец культуры «Капотня»,237332.0,3,55.63811407379036,37.79917687563951
100002,Спортивный комплекс «Полярная звезда»,219165.0,3,55.88366894692852,37.65372982209014
100004,"Парк, озелененная городская территория «Парк культуры и отдыха «Красная Пресня»»",237332.0,2,55.75389495991736,37.55155865005101
100005,Досуговый центр «Старт-7»,237424.0,3,55.76174068540823,37.54406401512964
100012,Дворовая территория,237339.0,4,55.73335597769562,37.67128320560025
100013,"Пункт выдачи спортивного инвентаря ГБУ «МосСпортОбъект», ул. Заречье, дом 7, строение 5",219165.0,3,55.68911478245682,37.7732704056313
100014,Фитнес клуб «Максим»,,3,55.70740896540305,37.8257311275581
100016,Государственное бюджетное учреждение города Москвы Центр культуры досуга и спорта «Истоки»,237343.0,3,55.702822766704806,37.82170176513659
100017,Государственное бюджетное учреждение города Москвы Центр культуры досуга и спорта «Истоки»,237343.0,3,55.686558497900734,37.85615510691472
100018,Досуговый центр «Юго-Восток»,237343.0,3,55.74899909447517,37.72079267850528
100019,Досуговый центр «Лефортово»,237437.0,3,55.77155706982898,37.71032380643045
100022,Дворовая территория,237343.0,4,55.728307,37.777158
100024,Досуговый центр «Содействие в воспитании здоровой и спортивной нации»,,3,55.72796178090926,37.77718358301066
100025,Физкультурно-оздоровительный комплекс «Вороново»,,3,55.312543,37.18171
100026,Стадион «Солнечный городок»,,2,55.30724775504169,37.19863994622651
100027,Досуговый центр «Дом культуры «Воскресенское»,,3,55.526979,37.444108
100028,Объединенный санаторий и дом отдыха «Десна»,259812.0,3,55.52216235597864,37.4102316399525
100030,Городской стадион,,2,55.475761,37.297233
100031,Дворец спорта «Квант»,,3,55.477189,37.299245
100032,Городской спортивно-оздоровительный центр «Гармония»,,3,55.471536,37.295688
100033,Фитнес-клуб «Мисс фитнес»,,3,55.78319573668128,37.6740155441694
100034,Стадион «ГБУ «СШ № 4» Москомспорта»,219165.0,2,55.68485490247633,37.92349615211403
100035,Спортивный зал «ГБУ «СШ № 4» Москомспорта»,219165.0,3,55.685496269880986,37.92264827329026
100036,Фитнес клуб «Титаниум»,,3,55.720859,37.787084
100038,Досуговый центр «Лотос»,237406.0,3,55.61450195684871,37.26165002522456
100039,Физкультурно-оздоровительный комплекс «Центр спорта Московский»,,3,55.59826434704519,37.35135419869796
100042,Дворовая территория,,4,55.48535346409048,37.30695493730787
100044,Спортивный комплекс «Нагорный»,219165.0,3,55.671712848531385,37.59867489181283
100046,Досуговый центр «САМ плюс»,237430.0,3,55.78020778059885,37.66466191399928
100047,Досуговый центр «Российский центр каскадеров «Трюк»,237430.0,3,55.77012709427176,37.640347574476415
100049,Спортивный комплекс «Чертаново»,219165.0,2,55.626431,37.606631
100053,Спортивный зал «Альтаир»,,3,55.70068760730515,37.68148960802309
100054,Досуговый центр «Кожуховский самбист»,,3,55.70646275416221,37.68161983894477
100058,Фитнес клуб «СпортЛэнд»,,3,55.700628,37.790974
100059,Досуговый центр «Истоки»,237343.0,3,55.6951538695056,37.80554910702895
100060,Молодежный и детский центр досуга «Информационное Образование»,,3,55.7028643436201,37.75038279859869
100061,ГБУ «Центр досуга и спорта «Обручевский»,237446.0,3,55.660511,37.51132
100062,Муниципальное учреждение «Спортивный клуб «Русь»,,4,55.325073,37.328189
100064,Государственное бюджетное учреждение культуры города Москвы «Культурный центр «Яковлевское»,237332.0,3,55.466223,36.940638
100067,Региональная общественная организация «Московский региональный центр спортивного туризма»,,3,55.689665983130496,37.85467359689161
100068,Дворовая территория,237402.0,4,55.9881394746777,37.178800187490026
100069,Дворовая территория,237402.0,4,55.98537053395588,37.1774349163573
100070,Дворовая территория,237402.0,4,55.98568263238805,37.17293361174076
100071,Дворовая территория,237402.0,4,55.99346153548735,37.18704930922357
100072,Дворовая территория,237402.0,4,55.99734286526119,37.1892897257716
100073,Дворовая территория,237402.0,4,55.99819583449485,37.185894228116325
100074,Дворовая территория,237402.0,4,55.99674146492097,37.18441385650411
100075,Дворовая территория,237402.0,4,55.99633849415715,37.18403572308565
100076,Дворовая территория,237402.0,4,55.99629983235104,37.1768006759484
100077,Дворовая территория,237402.0,4,55.997251643078926,37.181335010466256
100078,Спортивный зал «Энергия»,237348.0,3,55.99517244328239,37.17046011005902
100079,Дворовая территория,237402.0,4,55.9989065653981,37.19521510917118
100081,Дворовая территория,237402.0,4,55.99439908780177,37.19602913629669
100082,Дворовая территория,237402.0,4,55.99284128393269,37.19557442826866
100083,Дворовая территория,237400.0,4,56.0021977273266,37.206550037388894
100084,Фитнес-клуб «Алекс фитнес»,,3,55.991083145075045,37.21931748359008
100085,Дворовая территория,237401.0,4,55.99781050166062,37.21515551839901
100086,Дворовая территория,237401.0,4,56.00044709983449,37.212458846624926
100087,Дворовая территория,237401.0,4,55.98969573127319,37.22999267546876
100088,Дворовая территория,237401.0,4,55.98870478740722,37.23416284795466
100092,Спортивный комплекс учреждения социальной защиты населения «Территориальный центр социального обслуживания «Кузьминки» филиал «Рязанский»,237336.0,3,55.716553286598206,37.789569191497165
100094,Государственное бюджетное учреждение Спортивно-досуговый центр «Люблино»,237438.0,3,55.67434105489529,37.749609302880486
100096,Учреждение культурно-досугового типа «Митино»,237332.0,3,55.84636604288244,37.35553982890722
100098,Спортивный комплекс образовательного учреждения «Муниципальное автономное образовательное учреждение средняя общеобразовательная школа № 2»,,4,55.486821,37.30689
100100,Дворовая территория,,4,55.489442,37.296694
100102,Дворовая территория,,4,55.48587163011179,37.303367293817885
100105,Дворовая территория,,4,55.477134999118086,37.29528345989136
100106,Дворовая территория,,4,55.47927907166636,37.29780779128127
100107,Физкультурно-оздоровительный комплекс «Прометей»,,3,55.5704,37.47934
100108,Плоскостное спортивное сооружение,,3,55.517786,37.218622
100109,Комплекс спортивных сооружений «Подольск»,,2,55.36033036418082,37.41347147727383
100110,Футбольное поле,259810.0,3,55.50400684292293,37.32702749522462
100111,Физкультурно-оздоровительный комплекс «Спортивно-оздоровительный центр «Локомотив»,,3,55.432403,36.867829
100112,Дворовая территория,,4,55.21184128713964,37.07073612714285
100114,Комплекс спортивных сооружений «Ватутинки»,,2,55.51010083608019,37.36989208780307
100116,Дворовая территория,,4,55.53022580402222,37.447619385243705
100117,Дворовая территория,,4,55.53280301492286,37.44613766428653
100118,Спортивный комплекс образовательного учреждения,219814.0,4,55.530852,37.447836
100119,Дворовая территория,,4,55.630805284847774,37.25601049205682
100120,Дворовая территория,,4,55.65978759636724,37.32508802600074
100121,Физкультурно-оздоровительный комплекс «Подолье»,,3,55.44871083186318,37.52593884410944
100122,Физкультурно-оздоровительный комплекс «Спортивно-культурный центр по реабилитации воинов-участников локальных конфликтов «Пересвет» МУ «СК «Десна»»,,3,55.473306,37.541674
100123,Дворовая территория,,4,55.491579,37.306073
100124,Фитнес клуб «Фит лайф»,,3,55.738008,37.834848
100126,Комплекс спортивных сооружений «Спортивная Школа «Теннис парк»,,2,55.727832261477374,37.74513799886401
100127,Ледовый клуб «Айс Парк»,,2,55.72909813286684,37.74576528426751
100128,Учебно-физкультурный комплекс добровольная спортивная организация «Русская Земля»,237430.0,3,55.771975796752336,37.64218410724093
100129,Государственное бюджетное учреждение города Москвы Центр культуры досуга и спорта «Истоки»,237343.0,3,55.693135,37.856551
100130,спортивный зал,237444.0,3,55.71466390688629,37.73778214673988
100131,Дворовая территория,,4,55.47138924490179,37.29839075442588
100132,Спортивный комплекс образовательного учреждения «Муниципальное автономное дошкольное учреждение Центр развития ребенка Детский сад № 2 «Рябинка»»,,4,55.470418,37.297979
100133,Бассейн плавательный «МАУ ДО ДЮСШ-2»,,3,55.472569018800144,37.29508789257683
100134,Государственное бюджетное учреждение Спортивно-досуговый центр «Люблино»,237438.0,3,55.67881403336925,37.80072949661468
100135,Досуговый центр «Центр культуры досуга и спорта «Истоки»,237343.0,3,55.69615660535241,37.80216461199768
100140,Парк Победы на Поклонной горе,237333.0,1,55.731632,37.506945
100145,Досуговый центр «Бойцовский клуб на Баграмяна»,,3,55.67125211947392,37.790859720982034
100148,Ледяная естественная горка,237438.0,3,55.66951491930086,37.793391263779874
100149,Ледовый дворец «Стерх»,,2,55.50582729283225,37.55787702838895
100150,Физкультурно-оздоровительный комплекс «МБОУ ДОД ДЮСШ» городского округа Щербинка»,,3,55.50550839336063,37.559186174142766
100151,Дворовая территория,,4,55.48932690591685,37.31209143619533
100153,Дворовая территория,,4,55.49153457862329,37.30870755828658
100154,Государственное бюджетное учреждение города Москвы Центр культуры досуга и спорта «Истоки»,237343.0,3,55.71739327906089,37.807929638948416
100156,Дворовая территория,,4,55.472929,37.301159
100157,Досуговый центр «Спортивно-Досуговый Центр «Барс»,,3,55.706168,37.772307
100161,Фитнес-клуб «Веджим»,,3,55.70993485965317,37.803127643771255
100163,Московский государственный университет имени М.В.Ломоносова,,3,55.70636292319768,37.56761318930427
100177,Спортивный комплекс учреждения социальной защиты населения «Территориальный центр социального обслуживания «Кузьминки»,237336.0,3,55.709506622803936,37.76765800490746
100187,Спортивный комплекс учреждения социальной защиты населения «Центр социального обслуживания района Печатники»,237336.0,3,55.68084753096646,37.71703042728903
100188,Спортивный комплекс учреждения социальной защиты населения «ГБУ ТЦСО Марьино»,237336.0,3,55.65376621903626,37.7438308263127
100193,Дворовая территория,237390.0,4,55.724861702345656,37.91220381229656
100194,Плоскостное спортивное сооружение,237342.0,3,55.815413,37.738045
100196,Спортивный комплекс «Потаповский»,219165.0,3,55.759704,37.643031
100201,Дворовая территория,237380.0,4,55.87374073114985,37.65135044947708
100203,"Парк, особо охраняемая природная территория «Москворецкий»",237335.0,2,55.802818786069984,37.44935844078648
100204,Автодром «Картинг-центр «Форза картинг»»,,2,55.719029,37.681532
100205,"Парк, озелененная городская территория «Северное Тушино»",237332.0,2,55.86107899401639,37.44997636236761
100207,Дворовая территория,237387.0,4,55.82661873346773,37.81513924112656
100212,Автодром «Монако»,,2,55.80463337279091,37.5939693543388
100213,Автодром «РРТ-карт»,,2,55.78849,37.584595
100218,Автодром «Картинг-клуб 21»,,2,55.6743670893618,37.44499845364528
100223,Дворовая территория,237386.0,4,55.7961307609316,37.81067173100739
100225,Дворовая территория,237389.0,4,55.798330773067406,37.783661568968654
100227,Дворовая территория,237385.0,4,55.81703661491211,37.86130385906822
100228,Дворовая территория,237385.0,4,55.818670927946016,37.86169125616213
100231,Дворовая территория,237390.0,4,55.72597671658609,37.85094555341597
100240,Дворовая территория,237386.0,4,55.8023654985542,37.82505200108148
100242,Дворовая территория,237388.0,4,55.755796213346976,37.83061210592594
100244,Дворовая территория,237395.0,4,55.79070868499424,37.71379614496258
100252,Стрелковый клуб «Лабиринт»,,3,55.75635012844108,37.67721511541368
100256,Парк (озелененная городская территория) «Измайловский Парк»,237332.0,1,55.768863439407006,37.75084560284093
100258,Зона отдыха «Битца»лодочная станция,237453.0,2,55.591145430627485,37.54203982636775
100259,Спортивный клуб Стрела-84»,237430.0,3,55.771975,37.640479
100262,"Стрелковый стенд, стрельбище, тир «Окружной стрелково-спортивный клуб «Виктория»",,3,55.700725,37.807485
100268,Клуб стрельбы из лука «Варяг»,,3,55.751761,37.514068
100271,Дворовая территория,,4,55.64672529761116,37.26335029031998
100272,Дворовая территория,237367.0,4,55.8806755555849,37.57181407377149
100274,Дворовая территория,237368.0,4,55.87707067624918,37.663347902070015
100275,Дворовая территория,237368.0,4,55.88174615969712,37.675417405213246
100276,Дворовая территория,237368.0,4,55.87621443049432,37.67489410337702
100282,Спортивный зал «ГБУ ТЦ СО «Ярославский»,237336.0,3,55.86661017106727,37.69650237839252
100288,Спортивный комплекс образовательного учреждения,,4,55.81525724665765,37.61553023042212
100299,Спортивный зал «клуб Синдо»,,3,55.852162,37.64551
100322,Дворовая территория,237382.0,4,55.899356,37.584901
100324,Спортивный комплекс дошкольного образовательного учреждения,219814.0,4,55.902071,37.554708
100327,"Парк, озелененная городская территория «Джамгаровский парк»",237332.0,2,55.88867736399083,37.69652871827696
100328,Комплекс спортивных сооружений «Борисовские Пруды» ГБУ «СШОР № 44» Департамента спорта города Москвы,219165.0,2,55.63461845570866,37.703898678441945
100329,Физкультурно-оздоровительный комплекс с бассейном «Братеево»,219165.0,3,55.636199,37.753928
100330,Конно-спортивная база «Спортивная школа «Битца»,219165.0,1,55.6421497028504,37.58309683257861
100331,Спортивный зал «ГБУ «Спортивная школа № 76» Департамента спорта города Москвы»,219165.0,3,55.861802,37.562955
100332,Физкультурно-оздоровительный комплекс «ГБУ «Московская баскетбольная академия» Москомспорта структурное подразделение СШОР № 56»,219165.0,3,55.815949,37.817915
100384,Спортивный комплекс дошкольного образовательного учреждения,219814.0,4,55.884691,37.610574
100396,Спортивный комплекс дошкольного образовательного учреждения,219814.0,4,55.60946686696696,37.58121053464496
100446,Автодром «Русская школа картинга «Пилот»»,,2,55.883141,37.669684
100448,Парк культуры и отдыха «Фили»,237332.0,2,55.7482954863979,37.48382881385171
100449,Дорожка велосипедная (сквер по Рижскому проезду),237366.0,3,55.81482413172685,37.66169193023219
100453,Пойма реки Яуза вдоль улицы Северодвинская,237341.0,2,55.89065376155369,37.68221256122656
100458,"Парк, озелененная городская территория «Парк культуры и отдыха «Кузьминки»",237332.0,2,55.6939419662619,37.76603348819935
100461,Государственное автономное учреждение культуры города Москвы «МПК «Северное Тушино» парк «Дружба»,237332.0,2,55.85186203452645,37.47915253584279
100467,Парк по Борисовским прудам,237332.0,2,55.62589704545755,37.699708807328754
100469,Спортивный комплекс высшего учебного заведения «РАНХиГС»,266981.0,2,55.67560951576952,37.65123652629977
100471,Физкультурно-оздоровительный комплекс «Светлана»,,3,55.880894,37.700559
100472,Природно-исторический парк «Кузьминки-Люблино»,237335.0,2,55.689674,37.801907
100473,Парк «Сад культуры и отдыха имени Н.Э. Баумана»,237332.0,2,55.765853,37.660404
100474,Досуговый центр «Дизайн-завод «Флакон»,,3,55.805862,37.585422
100481,Стадион «Энергия» Спортивный комбинат Московского энергетического института (МЭИ),266981.0,2,55.762987730441424,37.70161340072861
100482,Стадион «Москвич»,219165.0,1,55.70793899262102,37.73558056764985
100484,Фитнес клуб «Энигма»,,3,55.79009173122431,37.45300410387013
100485,Стадион Московского государственного института международных отношений,266981.0,2,55.67406249241708,37.48307626320783
100488,Стадион «Российский университет дружбы народов»,266981.0,1,55.65243146018574,37.49445896854781
100489,Спортивный комплекс «Центральный»,219165.0,3,55.744019,37.66618
100490,Дворовая территория,237383.0,4,55.81868186119672,37.71985431409082
100491,дворовая территория,237383.0,4,55.806606,37.714815
100492,Дворовая территория,237425.0,4,55.781246,37.643893
100493,Дворовая территория,237428.0,4,55.77641787742595,37.70809189469792
100494,Дворовая территория,237428.0,4,55.773829,37.673573
100496,Дворовая территория,237428.0,4,55.755008,37.667303
100497,Дворовая территория,237424.0,4,55.769535,37.579421
100498,Дворовая территория,237428.0,4,55.76395501892644,37.65816803147508
100499,Дворовая территория,237428.0,4,55.77334341269795,37.70888646269783
100500,Дворовая территория,237424.0,4,55.759907,37.572845
100501,Дворовая территория,237339.0,4,55.7356618236704,37.678224384059256
100502,Дворовая территория,237384.0,4,55.73611060516997,37.82585253508181
100503,Дворовая территория,237384.0,4,55.7439977848771,37.82866600674485
100504,Дворовая территория,237384.0,4,55.740999,37.821158
100505,Дворовая территория,237384.0,4,55.74214479409376,37.82280670211587
100506,Дворовая территория,237384.0,4,55.716497478496805,37.82878235910362
100507,Дворовая территория,237384.0,4,55.71563383375204,37.82657443378145
100508,Дворовая площадка,237417.0,4,55.893162,37.393389
100509,Дворовая территория,237384.0,4,55.724087553956586,37.82124383724676
100510,Спортивный зал «Шахматная школа Анатолия Карпова»,219165.0,3,55.773105,37.543524
100512,Дворовая территория,237384.0,4,55.73719587980443,37.83298486450085
100513,Дворовая территория,237384.0,4,55.73655379701458,37.83554236212848
100514,Дворовая территория,237384.0,4,55.72351840866428,37.81124610282907
100515,Дворовая территория,237450.0,4,55.64644971752274,37.52026686165464
100516,Дворовая территория,237384.0,4,55.72009591118756,37.83210755859509
100517,Дворовая территория,237440.0,4,55.682808,37.917331
100518,Дворовая территория,237440.0,4,55.68435801802554,37.917007763466
100519,Дворовая территория,237440.0,4,55.68270982159618,37.91597613689993
100520,Дворовая территория,237440.0,4,55.68593148867558,37.92667048922935
100521,Дворовая территория,237440.0,4,55.687292303759484,37.920990626905855
100524,Досуговый центр,219165.0,3,55.86676183110216,37.56108946418457
100525,Дворовая территория,237400.0,4,55.996641,37.201033
100526,"Спортивный зал, ул. Петрозаводская, дом 12, корпус 1",219165.0,3,55.86427546327914,37.50228451561722
100527,Досуговый центр «На ул. Черняховского»,219165.0,3,55.80754091360792,37.53852348852212
100528,Дворовая территория,237400.0,4,56.00302594534953,37.21247074511658
100530,Парк по Ангарской улице,237332.0,2,55.88214995946671,37.52908947934584
100532,Парк «Северные Дубки»,237340.0,2,55.88736724959721,37.56341645766976
100539,Дворовая территория,237407.0,4,55.74163803398046,37.55172731911758
100548,Дворовая территория,237367.0,4,55.880725122857726,37.58840602553867
100549,Дворовая территория,237367.0,4,55.88077071655561,37.593074509600655
100551,Дворовая территория,237367.0,4,55.88643695073227,37.59204712254235
100554,Дворовая территория,237367.0,4,55.87394848661579,37.57907817748172
100555,Дворовая территория,237367.0,4,55.87569171782763,37.57342759546703
100557,Природно-исторический парк «Кузьминки-Люблино»,237335.0,2,55.67504898244791,37.80938477100698
100561,Дворовая территория,237407.0,4,55.74723232706288,37.57121419129751
100564,"Парк, озелененная городская территория «25 квартал Баковского лесопарка ПК №178»",237335.0,2,55.64525835011366,37.35721608018555
100568,Дворовая территория,237456.0,4,55.5381860197877,37.58044440339339
100569,Дворовая территория,237456.0,4,55.53937780883062,37.58198021549385
100572,Спортивный комплекс образовательного учреждения,219814.0,4,55.52170846049674,37.54828257598732
100573,Дворовая территория,237412.0,4,55.68328102276451,37.455685745713154
100574,Дворовая территория,237396.0,4,55.80889594964732,37.78615596834469
100575,Парк (озелененная городская территория) «Чоботовский лес»,237335.0,3,55.64634379761848,37.35890091373058
100600,Дворовая территория,237412.0,4,55.707677263937285,37.4808135876274
100605,Дворовая территория,237412.0,4,55.709799,37.478253
100615,Дворовая территория,237412.0,4,55.712097,37.486912
100616,Дворовая территория,237412.0,4,55.71414,37.485628
100623,Детский досуговый центр,237332.0,3,55.84060478546278,37.57481137013015
100625,Дворовая территория,237399.0,4,55.97734108022081,37.17497057774311
100631,Спортивный комплекс дошкольного образовательного учреждения,219814.0,4,55.947117,37.348222
100637,Дворовая территория,237412.0,4,55.696585,37.459289
100642,Зона отдыха «Борисовские пруды»,237332.0,2,55.6335737096926,37.70630918199898
100643,Дворовая территория,237420.0,4,55.85313890816879,37.43406594917009
100644,Дворовая территория,237342.0,4,55.807804442178,37.780569641471445
100645,Дворовая территория,237457.0,4,55.59541323412057,37.538388430757486
100647,Скейтпарк «Каньон»,237368.0,2,55.881747,37.673906
100651,Дворовая территория,237457.0,4,55.617027,37.539706
100657,Дворовая территория,237342.0,4,55.80600546576133,37.79126188481501
100670,Дворовая территория,237342.0,4,55.80737195605789,37.816822022400245
100671,Дворовая территория,237342.0,4,55.80488271012384,37.79255566739764
100676,Дворовая территория,237412.0,4,55.704479,37.462568
100680,"Парк, озелененная городская территория",237335.0,2,55.6929496628897,37.827491550817854
100685,Тренажерный городок парка «Кузьминки-Люблино»,237343.0,2,55.69104355723372,37.74944777004063
100686,"Парк, озелененная городская территория",237335.0,2,55.696428,37.795142
100687,Дворовая территория,237342.0,4,55.80609551964916,37.81741844023343
100689,Дворовая территория,237412.0,4,55.70316,37.469719
100696,Дворовая территория,237394.0,4,55.744536434564445,37.7594353818881
100703,Поле футбольное парка «Кузьминки-Люблино»,237335.0,2,55.673382,37.813782
100705,Дворовая территория,237342.0,4,55.80673534853872,37.81084256523122
100711,Дворовая территория,237342.0,4,55.80405139394782,37.80796818552087
100714,Дворовая территория,237412.0,4,55.68238047820181,37.45339944855067
100716,Дворовая территория,237412.0,4,55.677712,37.44444
100717,Дворовая территория,237446.0,4,55.66293403356641,37.52154019466072
100719,Дворовая территория,237342.0,4,55.81033609759442,37.81570461849537
100721,Дворовая территория,237342.0,4,55.80473353437103,37.80606886581145
100722,Дворовая территория,237342.0,4,55.80521195930394,37.8150649915748
100723,Дворовая территория,237342.0,4,55.8093240780882,37.82898060734792
100724,Дворовая территория,237342.0,4,55.81107925266088,37.82796277518955
100725,Дворовая территория,237342.0,4,55.80773834771544,37.78699373106521
100726,Дворовая территория,237342.0,4,55.80378273735325,37.79085970684836
100727,Дворовая территория,237342.0,4,55.80898677306317,37.799169620473535
100730,Дворовая территория,237412.0,4,55.7060931063855,37.47112621098259
100734,Дворовая территория,237342.0,4,55.80617569724645,37.7729129908009
100744,Дворовая территория,237412.0,4,55.672621286225066,37.45281444676503
100749,Дворовая территория,237412.0,4,55.69335948280317,37.45548163314463
100761,Дворовая территория,237342.0,4,55.80743,37.776215
100762,Дворовая территория,237342.0,4,55.80638606126984,37.78031002598373
100763,Дворовая территория,237342.0,4,55.809017455214686,37.79139767316241
100780,Дворовая территория,237415.0,4,55.640777977232695,37.408943250032415
100791,Дворовая территория,237412.0,4,55.67414633901301,37.448233204520704
100816,Дворовая территория,237412.0,4,55.679793,37.45531
100819,Дворовая территория,237387.0,4,55.821117067174576,37.8271666803158
100820,Горнолыжный комплекс «Воробьёвы горы»,219165.0,1,55.709715886304274,37.54563849395554
100824,Дворовая территория,237415.0,4,55.64035036463256,37.4065967060868
100836,Дворовая территория,237392.0,4,55.75108362960234,37.79671632476127
100837,Дворовая территория,237392.0,4,55.7514727468205,37.809830200929895
100844,Дворовая территория,237392.0,4,55.74808928844131,37.82785593038267
100845,Дворовая территория,237392.0,4,55.74623056914216,37.82353321681828
100846,Дворовая территория,237392.0,4,55.75503565555477,37.80995971657509
100847,Дворовая территория,237392.0,4,55.75570766966557,37.80771997684607
100848,Дворовая территория,237415.0,4,55.64983431688576,37.41301508606604
100850,Дворовая территория,237392.0,4,55.748492557966905,37.80826657107247
100851,Дворовая территория,237392.0,4,55.75707092193749,37.8177808898572
100852,Дворовая территория,237392.0,4,55.746366134880425,37.81353741757348
100854,Дворовая территория,237392.0,4,55.751039537928406,37.81558318661841
100855,Дворовая территория,237392.0,4,55.75530005529213,37.82412172216694
100856,Дворовая территория,237392.0,4,55.75710992153009,37.825569219867226
100857,Дворовая территория,237392.0,4,55.746980168554266,37.79624609875119
100858,Дворовая территория,237392.0,4,55.7457714132547,37.79313245921308
100861,Спортивный зал «50 лет Октября»,219165.0,3,55.647655528311134,37.41495684043124
100862,Дворовая территория,237392.0,4,55.7504584084623,37.80105561122723
100863,Дворовая территория,237392.0,4,55.75040523664308,37.799254681721536
100864,Дворовая территория,237392.0,4,55.74609687855136,37.80799299286018
100866,Дворовая территория,237392.0,4,55.74334136706651,37.78503099204238
100867,Дворовая территория,237392.0,4,55.74307990342368,37.78551076156933
100868,Дворовая территория,237392.0,4,55.740466507256095,37.78169911486508
100871,Дворовая территория,237392.0,4,55.74174285262455,37.780437666432746
100874,Дворовая территория,237342.0,4,55.749595390979735,37.82388683859533
100884,Дворовая территория,237342.0,4,55.751363841148695,37.82332406328606
100885,Дворовая территория,237342.0,4,55.75320008987232,37.81252231893415
100965,Спортивный комплекс среднего профессионального образовательного учреждения,219814.0,4,55.70386,37.679844
100974,Дворовая территория,237415.0,4,55.64642668449935,37.41109044951313
100978,Спортивный клуб «Ладья»,219165.0,3,55.705087,37.45972
100982,Пункт хранения спортивного инвентаря с раздевалкой «СШОР «Нагорная» (велобаза),219165.0,3,55.609891019648245,37.29899091183477
100993,Крытое сооружение с искусственным льдом «Медведково»,219165.0,2,55.866005,37.634515
101002,Дворовая территория,237404.0,4,55.668682643133465,37.4514603265914
101043,"Парк, озелененная городская территория «Парк Школьников»",237346.0,2,55.667939,37.462999
101046,Дворовая территория,237404.0,4,55.667963800721054,37.45478144583505
101049,Крытое сооружение с искусственным льдом «Ледовый дворец «Мечта»,219165.0,2,55.891173,37.614994
101050,Дворовая территория,237404.0,4,55.65559258018408,37.48918887997053
101065,Дворовая территория,237404.0,4,55.67013898014974,37.466773218637634
101079,Дворовая территория,237404.0,4,55.656243614016425,37.48202866455696
101082,Дворовая территория,237404.0,4,55.653485746156,37.48128126038301
101084,Физкультурно-оздоровительный комплекс «МИРЭА»,266981.0,3,55.662669,37.47801
101101,Дворовая территория,237404.0,4,55.666746903528974,37.49048920653301
101103,Дворовая территория,237404.0,4,55.66206664337168,37.49175262779573
101111,Парк (озелененная городская территория) «Юго-Западный лесопарк»,237335.0,2,55.65862938361701,37.50420710456847
101121,Дворовая территория,237404.0,4,55.667249,37.467078
101123,Дворовая территория,237404.0,4,55.65690630352088,37.47327802334791
101124,Дворовая территория,237404.0,4,55.6619833865332,37.47224960978696
101132,Дворовая территория,237404.0,4,55.660602,37.469287
101150,Дворовая территория,237404.0,4,55.668346,37.471488
101153,Дворовая территория,237404.0,4,55.65944683950168,37.47394650199126
101159,Дворовая территория,237416.0,4,55.71928049962782,37.45358348595632
101166,Дворовая территория,237404.0,4,55.66505203780338,37.45304414776884
101167,Дворовая территория,237342.0,4,55.8042781261764,37.81445534931734
101171,Дворовая территория,237387.0,4,55.82917922394319,37.81824690611585
101192,Дворовая территория,237416.0,4,55.72122298466082,37.45557038079512
101194,Дворовая территория,237416.0,4,55.720784171993145,37.45387161383708
101198,Спортивный комплекс образовательного учреждения,219814.0,4,55.64361318083454,37.48688569331734
101205,Спортивный комплекс дошкольного образовательного учреждения,266981.0,4,55.63337537232889,37.47888293712926
101208,Спортивный комплекс высшего учебного заведения «Российский государственный социальный университет»,266981.0,2,55.82575436513541,37.72050593867508
101209,Спортивный комплекс высшего учебного заведения «Московский энергетический институт (МЭИ)»,266981.0,2,55.762277,37.703631
101258,Дворовая территория,237397.0,4,55.76131,37.741522
101259,Дворовая территория,237436.0,4,55.69900559011053,37.753339105146495
101260,Дворовая территория,,4,55.54997859279719,37.325055072721256
101266,Дворовая территория,237393.0,4,55.74187305192866,37.87133284476653
101290,Конноспортивная база «Сокорос»,,2,55.80300677029417,37.65813072175579
101291,Досуговый центр «Спутник»,237454.0,3,55.64195727419761,37.47708369625019
101292,Спортивный зал «Витязь»,237454.0,3,55.62233343792476,37.495177233687166
101296,Гребная учебно-спортивная база ЦСК ВМФ РФ «Серебряный бор»,259810.0,2,55.775231,37.433768
101297,Спортивный комплекс учреждения социальной защиты населения «Пансионат «Коньково»,237336.0,3,55.62993701847215,37.50409112079281
101298,Спортивный комплекс учреждения социальной защиты населения «Пансионат для ветеранов труда № 6»,237336.0,3,55.639794752824606,37.50126246614292
101300,Досуговый центр «Крылья»,237347.0,3,55.83771683752774,37.39044963835041
101303,Физкультурно-оздоровительный комплекс «Красная Пахра»,,3,55.431009,37.27376
101304,Стадион «Локомотив 2-Перово»,,2,55.74075209881267,37.77427030885029
101306,Фитнес клуб «МоскоуСпортКлуб»,,3,55.632379104772106,37.51635347968465
101307,Фитнес клуб «Фитнес точка»,,3,55.64447993748526,37.49044843082194
101308,Фитнес клуб «Ворлд класс»,,3,55.75491409588525,37.609615990773015
101312,Спортивный комплекс учреждения социальной защиты населения «Территориальный центр социального обслуживания «Ясенево»,237336.0,3,55.626202451134816,37.51012826860422
101317,Бар-бильярд в Перово,,3,55.74628349757696,37.79567776935947
101318,Дворовая территория,237400.0,4,56.010919637793954,37.20454521743853
101319,Стадион «Метеор»,,2,55.73892889284843,37.5140792149554
101320,Спортивный комплекс дошкольного образовательного учреждения,219814.0,4,55.57571403214915,37.580977387138105
101324,Спортивно досуговый центр «Юго-Запад»,237345.0,3,55.67793028186831,37.59573897415019
101325,Спортивный комплекс высшего учебного заведения «Металлург»,266981.0,2,55.64478,37.530148
101326,Комплекс спортивных сооружений «Старт»,267360.0,2,55.64898514627319,37.55283267857313
101327,Спортивный комплекс учреждения социальной защиты населения «Территориальный центр социального обслуживания Ломоносовский филиал Коньково»,237336.0,3,55.65022814616047,37.53030884298765
101328,Негосударственное образовательное учреждение Спортивно-оздоровительный центр «Лидер»,,3,55.678116576759706,37.53193123518752
101329,Досуговый центр «Негосударственное образовательное учреждение «Спортивно-оздоровительный центр «Лидер»,,3,55.68270464443106,37.53629637467393
101330,Досуговый центр «Орион»,237447.0,3,55.690634717701606,37.59014916442437
101331,Фитнес-клуб «Вита-спорт»,,3,55.79018498498242,37.44893178535315
101333,Физкультурно-оздоровительный комплекс «Водно-спортивный комплекс «Буревестник»,,3,55.82379505381357,37.41454520293829
101335,Стадион (менее 1500 мест) «Вымпел»,,2,55.78975086486992,37.755393266155465
101346,Комплекс спортивных сооружений «Академия «Спартак» по футболу имени Ф. Черенкова»,,2,55.803752,37.694783
101349,Досуговый центр «Дворы нашего округа»,237387.0,3,55.814072,37.787255
101350,Фитнес-клуб «Центр физической культуры «Спортивные люди»,,3,55.79755921841806,37.77608324451208
101353,Плоскостное спортивное сооружение,237393.0,3,55.74398549085732,37.86508864945983
101354,Спортивный комплекс высшего учебного заведения «служебный»,219376.0,2,55.70427693171119,37.64536268328577
101357,"Дорожка велосипедная, беговая-прогулочная «Велодорожка района Новокосино»",237393.0,3,55.7347365294178,37.84856372801626
101396,Дворец спорта «Сокольники»,,1,55.79292633845317,37.6715640924293
101404,Досуговый центр «Детский молодежный центр Сокольники»,237398.0,3,55.79582469906562,37.69460477837762
101419,Спортивный комплекс дошкольного образовательного учреждения,219814.0,4,55.80781707396949,37.70827589225309
101425,Спортивный комплекс образовательного учреждения,219814.0,4,55.68212666959476,37.59717313583792
101446,Досуговый центр «Космос»,237448.0,3,55.70597390739937,37.57973519964306
101454,Спортивный комплекс образовательного учреждения,219814.0,4,55.701628,37.660197
101471,Государственное бюджетное учреждение города Москвы спортивно-досуговый центр Ратмир,237449.0,3,55.65029956141039,37.60464961736285
101480,Спортивный комплекс учреждения социальной защиты населения «ГБУ города Москвы «Психоневрологический интернат № 18»,237336.0,3,55.65347709289702,37.58237742750534
101481,Фитнес клуб»Кэй Джим»,,3,55.653340327909184,37.593080245402426
101492,Спортивный зал «Центр красоты и здоровья»,,3,55.81728589856097,37.708465355045824
101493,Спортивный зал «Будь здоров»,,3,55.81750867733367,37.70951940465222
101495,Дворовая территория,237461.0,4,55.71843497319362,37.64485922068162
101497,Дворовая территория,237461.0,4,55.717178623398,37.63094572333839
101499,Дворовая территория,237461.0,4,55.70653303489509,37.65496208194681
101502,Дворовая территория,237461.0,4,55.71044753592437,37.64096558646829
101504,Дворовая территория,237462.0,4,55.70747822025746,37.60162369018944
101514,Фитнес клуб «Спарта»,,3,55.8015771079945,37.82786444606028
101522,Фитнес-клуб «Магнето Фитнесс»,,3,55.65212814642589,37.34853571429444
101525,Клуб восточных единоборств,,3,55.81692970556133,37.719663670512006
101526,Фитнес клуб «Новая спарта»,,3,55.8161640777728,37.69424618249899
101531,Спортивный комплекс среднего профессионального образовательного учреждения «Лицей ФГБОУ ВПО «Московский Государственный Психолого-Педагогический Университет»»,266981.0,4,55.7613224745914,37.78699963059197
101539,Физкультурно-оздоровительный комплекс «Торпедо»,,3,55.7028915493445,37.65202871758125
101540,Спортивный комплекс среднего профессионального образовательного учреждения «ГБПОУ «Медицинский колледж №6»,237334.0,4,55.77185490289697,37.729573910337926
101541,Дворовая территория,237461.0,4,55.70867826878181,37.66258329392901
101544,Досуговый центр «Богородское»,237383.0,3,55.815736,37.727832
101546,Досуговый центр «Восход»,237383.0,3,55.815281,37.727266
101548,Дворовая территория,237460.0,4,55.64091084405646,37.771154831707086
101552,Дворовая территория,237467.0,4,55.650444,37.613009
101553,Дворовая территория,237467.0,4,55.650896,37.616369
101554,Дворовая территория,237470.0,4,55.61980608771652,37.65914491785162
101557,Центр спорта и досуга Атлант,237457.0,3,55.60379146591135,37.51882113735823
101558,Учреждение культуры города Москвы «Усадьба Воронцово»,237332.0,2,55.6673,37.531963
101560,Спортивный комплекс высшего учебного заведения «ФГБОУ ВО «Московский политехнический университет»»,266981.0,2,55.78129123268122,37.71150841892364
101564,Досуговый центр «Центр социального обслуживания «Ясенево»»,237336.0,3,55.59323708776157,37.54502465398983
101567,Спортивный комплекс учреждения социальной защиты населения «Центр социального обслуживания «Ломоносовский»,237336.0,3,55.67948868708416,37.53498619888982
101571,Физкультурно-оздоровительный комплекс «Центр Вешняки»,237342.0,3,55.72284938732062,37.8316209029763
101575,Дворовая территория,237454.0,4,55.642525,37.480543
101576,Конно-спортивная база Государственного бюджетного учреждения города Москвы «Центр олимпийской подготовки» Департамента спорта города Москвы,219165.0,1,55.81450627658087,37.87582587450724
101577,Спортивный комплекс дошкольного образовательного учреждения,219814.0,4,55.682453935410734,37.53338710242423
101578,Досуговый центр «Контакт»,237342.0,3,55.816839304882,37.85975243182471
101580,Спортивный комплекс дошкольного образовательного учреждения,219814.0,4,55.67765896767506,37.52644700102
101581,Спортивный комплекс дошкольного образовательного учреждения,219814.0,4,55.675385172377865,37.52317894782711
101585,Центр спорта и досуга Атлант»,237457.0,3,55.61355145162593,37.54176051045378
101595,Спортивный комплекс образовательного учреждения,,4,55.65434444191421,37.59503010790904
101596,Дворовая территория,237447.0,4,55.69253356643069,37.58811726615827
101597,Молодежный центр «Котловка»,237345.0,3,55.67660522666586,37.60787430653071
101598,Общественная организация «ДЮФК Союзник»,,3,55.821937,37.717708
101600,Государственное бюджетное учреждение «Спортивно досуговый центр «Восточное Измайлово»,237342.0,3,55.801845,37.817439
101606,Фитнес клуб «Зарядка»,,3,55.61931274669272,37.50926976276897
101610,Фитнес клуб «Сити»,,3,55.739823,37.783141
101612,Московский финансовый колледж,266981.0,4,55.74400275790362,37.79286152094026
101616,Фитнес клуб «Лайт-Фит»,,3,55.798438632423725,37.70914124275205
101620,Досуговый центр «Преображенец»,237342.0,3,55.79345299608282,37.728720629210976
101623,Фитнес клуб «Стрит фитнес»,,3,55.79619292892185,37.71974321527075
101630,Дворовая территория,237458.0,4,55.599606,37.660449
101633,Фитнес клуб «Т-стиль»,,3,55.820811951566114,37.83323577244082
101635,Фитнес клуб «СпортЛэнд»,,3,55.61575332263161,37.51326560261407
101636,Парк «Гольяново»,237387.0,2,55.82020671941738,37.80274273522939
101638,Спортивный зал «ГБУ КСЦ «Форвард»,237387.0,3,55.813491,37.788288
101648,Спортивный зал «Клуб боевых искусств Айкидо-спорт»,237387.0,3,55.816778,37.813136
101651,Лыжная трасса,237335.0,3,55.597285595282585,37.55909179522059
101652,Стадион «РЖД Арена»,,1,55.802732102126974,37.74141098119923
101653,Фитнес клуб «Зебра»,,3,55.80624763208622,37.742246940663904
101657,Дворовая территория,237458.0,4,55.59791016231145,37.66561981984644
101662,Дворовая территория,237458.0,4,55.58538989634405,37.66859856551908
101672,Дворовая территория,237458.0,4,55.58446436522445,37.67192854761566
101676,Дворовая территория,237458.0,4,55.58237757486892,37.6679240884478
101682,Дворовая территория,237458.0,4,55.58099924923463,37.669970031770745
101683,Дворовая территория,237458.0,4,55.581190664558754,37.66847310826235
101684,Дворовая территория,237467.0,4,55.655437,37.617833
101685,Дворовая территория,237467.0,4,55.65496,37.613737
101686,Дворовая территория,237467.0,4,55.655214,37.614635
101690,Спортивный комплекс учреждения социальной защиты населения «Психоневрологический интернат № 22»,237336.0,3,55.82731379018519,37.71380039663304
101692,Спортивный комплекс высшего учебного заведения «Московский государственный гуманитарно-экономический университет»,266981.0,2,55.82804577660209,37.72674712200028
101693,Досуговый центр «Новогиреево»,237342.0,3,55.74882936976402,37.802603560419385
101695,Дворовая территория,237467.0,4,55.657022,37.612308
101699,Дворовая территория,237461.0,4,55.72007079325154,37.62528337832365
101700,Дворовая территория,237468.0,4,55.627427,37.720888
101703,Дворовая территория,237468.0,4,55.62648834072116,37.72723760616793
101704,Спортивный комплекс учреждения социальной защиты населения «Мой семейный центр Планета Семьи»,237336.0,3,55.62685673079927,37.72530768060408
101705,Дворовая территория,237468.0,4,55.625821,37.712596
101707,Дворовая территория,237468.0,4,55.624444,37.72396
101711,Дворовая территория,237468.0,4,55.623183,37.724086
101712,Дворовая территория,237468.0,4,55.617979770483245,37.72664095578379
101714,Спортивный комплекс среднего профессионального образовательного учреждения,237334.0,4,55.762363,37.793454
101715,Дворовая территория,237468.0,4,55.62606793766719,37.71415326687798
101717,Дворовая территория,237468.0,4,55.614551,37.723996
101718,Дворовая территория,237468.0,4,55.61506622299029,37.72885857591533
101722,Дворовая территория,237468.0,4,55.62302607968038,37.72299189941269
101724,Дворовая территория,237468.0,4,55.62740634999696,37.71877316787998
101726,Дворовая территория,237460.0,4,55.63046677237635,37.76156304359705
101730,Дворовая территория,237460.0,4,55.63232835601065,37.76882644274963
101731,Дворовая территория,237460.0,4,55.63304655302354,37.770412154028506
101732,Дворовая территория,237460.0,4,55.63286071487594,37.75271217063366
101733,Дворовая территория,237460.0,4,55.63470314889598,37.7531430092929
101734,Досуговый центр «Новокосино «Родник»»,237342.0,3,55.732709163761534,37.85700559148704
101736,Дворовая территория,237460.0,4,55.63429821302993,37.75817396042935
101737,Дворовая территория,237460.0,4,55.6365149810789,37.765402544785736
101738,Дворовая территория,237460.0,4,55.63782077394427,37.76962821070968
101739,Досуговый центр «Патриот»,237387.0,3,55.8164255556306,37.81867328760487
101742,Клуб «Самбо-70»,,3,55.639057528714766,37.51283096764077
101743,Физкультурно-оздоровительный комплекс «ГБУ «ЦОП» Москомспорта»,219165.0,3,55.789036,37.740758
101746,Государственное бюджетное учреждение Детский молодежный центр «Синяя птица»,237391.0,3,55.826412,37.752805
101748,Дворовая территория,237460.0,4,55.63788897137586,37.77108227110422
101750,Дворовая территория,237459.0,4,55.580047635386,37.64368807648975
101753,Государственное бюджетное учреждение Детский Молодежный центр «Синяя птица»,237391.0,3,55.82299959163303,37.75754056317782
101754,Спортивный комплекс образовательного учреждения,219814.0,2,55.825007,37.760908
101757,Дворовая территория,237459.0,4,55.57948445456074,37.654637413705935
101758,Дворовая территория,237459.0,4,55.57850860433638,37.6522844667109
101759,Дворовая территория,237459.0,4,55.58712146945093,37.65487317829042
101760,Дворовая территория,237459.0,4,55.58320830751886,37.65433709232003
101761,Дворовая территория,237459.0,4,55.58264097138864,37.65694801114071
101770,Досуговый центр «Спутник»,237454.0,3,55.64295088603346,37.48440909002884
101772,Дворовая территория,237459.0,4,55.593752490415554,37.65121486447488
101773,Фитнес клуб «Союз-спорт»,,3,55.64224662706577,37.50680506640517
101776,Дворовая территория,237462.0,4,55.698173,37.619827
101784,Досуговый центр «Союзник»,,3,55.819439,37.700693
101786,Фитнес клуб «Ворлд Класс»,,3,55.6296214472102,37.61586502060005
101789,Дворовая территория,237471.0,4,55.627575,37.615273
101791,Фитнес клуб «Ворлд Класс»,,3,55.69709159013654,37.617859721265184
101795,"Парк, озелененная городская территория «Государственное автономное учреждение культуры города Москвы «Парк культуры и отдыха «Сокольники»",237332.0,2,55.79330923640726,37.67927163601691
101797,Стадион «Крылья Советов»,,1,55.77493171652517,37.728267522476166
101803,Физкультурно-оздоровительный комплекс «Скиф»,219165.0,3,55.82491452674349,37.81554627434476
101809,Дворовая территория,237473.0,4,55.59099016167693,37.59258067944885
101810,Досуговый центр «Культурный центр «Интеграция»,237332.0,3,55.76711001481286,37.82777410125048
101816,Дворовая территория,237473.0,4,55.5910647451609,37.59208762839658
101819,Дворовая территория,237473.0,4,55.585609439733496,37.59615449933595
101820,Спортивный комплекс высшего учебного заведения,,2,55.69485728625278,37.6221791587557
101821,Дворовая территория,237465.0,4,55.67897260554956,37.62732186567433
101822,Дворовая территория,237465.0,4,55.67644391857962,37.62805512242514
101828,Дворовая территория,237467.0,4,55.658987,37.618722
101830,Дворовая территория,237467.0,4,55.660445,37.620276
101831,Дворовая территория,237467.0,4,55.656869,37.618758
101833,Дворовая территория,237467.0,4,55.654995,37.620276
101835,Дворовая территория,237467.0,4,55.652933,37.62069
101836,Спортивный комплекс образовательного учреждения «Колледж музыкально-театрального искусства имени Г. П. Вишневской»,237332.0,4,55.74499264770633,37.87480019936518
101839,Дворовая территория,237469.0,4,55.61007178982986,37.73564749825535
101840,Дворовая территория,237469.0,4,55.60980464594029,37.73632682942878
101843,Дворовая территория,237469.0,4,55.609675,37.725164
101844,Дворовая территория,237469.0,4,55.609009,37.7388
101845,Дворовая территория,237469.0,4,55.60876,37.741935
101849,Дворовая территория,237469.0,4,55.607956,37.729035
101856,Досуговый центр «Перово»,237394.0,3,55.74333260080713,37.75504123804391
101857,Государственное автономное образовательное учреждение высшего образования Московский государственный университет спорта и туризма (Восточный кампус),219165.0,2,55.79711616819867,37.70564884026541
101867,Стадион «Торпедо» имени Э.А. Стрельцова,,1,55.71655144570073,37.65545144114814
101870,Досуговый центр «Перово»,237394.0,3,55.74741484627786,37.77582874282888
101875,Дворовая территория,237459.0,4,55.57555491508717,37.64968079629515
101876,Досуговый центр «Садко»,237342.0,3,55.72453003617623,37.821672119645605
101877,Дворовая территория,237459.0,4,55.57570297635232,37.64704010204064
101878,Дворовая территория,237459.0,4,55.586465752986655,37.64241497282621
101879,Дворовая территория,237459.0,4,55.575815131927904,37.65492904261017
101880,Дворовая территория,237459.0,4,55.576177,37.658562
101881,Дворовая территория,237459.0,4,55.585652,37.641971
101882,Дворовая территория,237459.0,4,55.58216090077223,37.64380115643117
101885,Дворовая территория,237469.0,4,55.605902,37.747038
101886,Дворовая территория,237469.0,4,55.60629175209293,37.74994148071249
101887,Досуговый центр «Спортивно-досуговый клуб «Викинг»,237469.0,3,55.608038,37.753496
101888,Дворовая территория,237469.0,4,55.609253,37.755751
101890,Дворовая территория,237469.0,4,55.609273,37.759632
101892,Дворовая территория,237461.0,4,55.70862232717883,37.643335956027954
101895,Дворовая территория,237461.0,4,55.723092672083816,37.64729053844289
101896,Фитнес клуб «Веллиес – эксперт»,,3,55.7385904388608,37.76878165653355
101899,Фитнес клуб «Прогресс»,,3,55.74310940959291,37.76081158649608
101902,Дворовая территория,237472.0,4,55.61718767467558,37.58077911239406
101903,Дворовая территория,237472.0,4,55.61686414895168,37.58048207022484
101904,Дворовая территория,237472.0,4,55.616417,37.582915
101905,Дворовая территория,237472.0,4,55.6226407309304,37.59030569035857
101906,Дворовая территория,237472.0,4,55.61932,37.586024
101907,Плоскостное спортивное сооружение,237344.0,3,55.61762725488724,37.588466898678085
101910,Дворовая территория,237472.0,4,55.61546744076366,37.59077951958234
101911,Дворовая территория,237472.0,4,55.62104850020718,37.60170272872326
101912,Дворовая территория,237472.0,4,55.620918715687,37.598225878471325
101913,Дворовая территория,237472.0,4,55.620326169428,37.600774005422245
101914,Дворовая территория,237472.0,4,55.62200731277177,37.59746934450236
101915,Спортивный комплекс образовательного учреждения,219814.0,4,55.789841,37.669711
101921,Дворовая территория,237468.0,4,55.61167611564199,37.70617724951396
101922,Досуговый центр «Центр Вешняки»,237342.0,3,55.74038694985187,37.82464269658422
101924,Дворовая территория,237468.0,4,55.612263,37.702715
101926,Дворовая территория,237469.0,4,55.606929,37.71018
101928,Дворовая территория,237469.0,4,55.602164,37.713234
101931,Дворовая территория,237468.0,4,55.615278477282445,37.70327907948632
101932,Дворовая территория,237468.0,4,55.61466768426167,37.70476393941812
101933,Дворовая территория,237462.0,4,55.718882,37.603801
101934,Дворовая территория,237462.0,4,55.71792672730015,37.60282800856909
101937,Дворовая территория,237473.0,4,55.5965769537332,37.61848336635963
101942,Дворовая территория,237473.0,4,55.60076217248832,37.62420679112625
101943,Дворовая территория,237473.0,4,55.60177666086057,37.62472290944699
101945,Дворовая территория,237469.0,4,55.606901137646624,37.735592323780864
101946,Дворовая территория,237469.0,4,55.607239,37.735422
101947,Дворовая территория,237469.0,4,55.605546,37.736994
101948,Дворовая территория,237469.0,4,55.60315814442265,37.73814447777398
101949,Дворовая территория,237469.0,4,55.602037,37.741342
101950,Дворовая территория,237469.0,4,55.602805,37.742528
101951,Дворовая территория,237469.0,4,55.601177,37.739617
101955,Дворовая территория,237470.0,4,55.629162064200486,37.67053993155651
101956,Дворовая территория,237470.0,4,55.62948523406485,37.67193144264149
101958,Московский гуманитарный университет,,2,55.726974,37.815265
101961,Дворовая территория,237470.0,4,55.62762325813863,37.6772832354173
101962,Дворовая территория,237462.0,4,55.69402895894086,37.60059860461808
101963,Крытое сооружение с искусственным льдом «Ледо»,237342.0,2,55.7365023982037,37.81721891403196
101964,Дворовая территория,237462.0,4,55.692221,37.605715
101967,"Парк, озелененная городская территория «Делегатский парк»",237339.0,2,55.776943,37.611401
101968,Дворовая территория,237462.0,4,55.69110645743506,37.60464243781049
101969,Плоскостное спортивное сооружение,237462.0,3,55.69877947718584,37.61191609901168
101976,Спортивный зал «Почемучка»,237387.0,3,55.823778,37.809551
101980,Дворовая территория,237462.0,4,55.69580571836916,37.60645032733234
101981,Дворовая территория,237458.0,4,55.58305451011525,37.69029286599714
101983,Спортивный комплекс «Вымпел»,219165.0,2,55.75485393332682,37.824664635581954
101988,Досуговый центр «Гармония»,237387.0,3,55.82450195510126,37.82650164877521
101989,Дворовая территория,237463.0,4,55.62637038549915,37.74909530955738
101990,Дворовая территория,237463.0,4,55.62202908278914,37.75391539007924
101993,Досуговый центр «Форвард»,237387.0,3,55.826781,37.82396
101995,Спортивный клуб «Атэус»,,3,55.81375718983488,37.79932678303908
101996,Стадион «Авангард»,219165.0,1,55.76412216337055,37.774303794235685
101998,Досуговый центр «АНО «ДЮКБИ»»,237342.0,3,55.77236892573305,37.8327578533262
101999,Досуговый центр «Форвард»,237387.0,3,55.808204,37.769594
102000,Фитнес клуб «Голдс Джим»,,3,55.791488537170565,37.70700432626453
102001,Досуговый центр «Соколинка»,237397.0,3,55.78181988210158,37.73910766685449
102002,Спортивный комплекс среднего профессионального образовательного учреждения «ГБОУ СПО Московский колледж информатики и электронной техники»,219376.0,4,55.7807373941501,37.73219217957951
102003,Досуговый центр «Южное Измайлово»,237342.0,3,55.7716347798452,37.83188325601487
102006,Спортивный комплекс учреждения социальной защиты населения «Психоневрологического интернат № 12»,237336.0,3,55.807254585869416,37.79750897693885
102008,Дворовая территория,237463.0,4,55.62061734651091,37.75938412822796
102009,Дворовая территория,237466.0,4,55.67801399275136,37.688523711940206
102010,Дворовая территория,237466.0,4,55.67649280132996,37.68580252971397
102011,Дворовая территория,237466.0,4,55.68105265943341,37.68260882212648
102012,Дворовая территория,237344.0,4,55.67484182487269,37.687420918909545
102013,Дворовая территория,237466.0,4,55.67963092862926,37.68397080793012
102014,Дворовая территория,237466.0,4,55.681116688478106,37.68491617039317
102015,Дворовая территория,237466.0,4,55.681095683317416,37.68493345806851
102016,Дворовая территория,237466.0,4,55.68000656826332,37.68507664086214
102019,Дворовая территория,237470.0,4,55.62946911494085,37.65686461432856
102021,Дворовая территория,237470.0,4,55.62723075215296,37.65210796276796
102022,Дворовая территория,237470.0,4,55.62819648546962,37.65100963130417
102023,Дворовая территория,237470.0,4,55.63511670131084,37.67028247400516
102025,Дворовая территория,237470.0,4,55.6364752767874,37.67176736369187
102028,Дворовая территория,237464.0,4,55.64064691288715,37.66622228708709
102034,Спортивно-досуговый центр «Вешняки»,237384.0,3,55.72246905589108,37.81109654593427
102037,Фитнес клуб «Вфф Джим»,,3,55.72194558339071,37.62881236034182
102042,Дворовая территория,237470.0,4,55.63682853878658,37.66695325699842
102046,Дворовая территория,237470.0,4,55.63706129891552,37.66358733300121
102047,Дворовая территория,237470.0,4,55.63675635253803,37.66230506968763
102048,Дворовая территория,237470.0,4,55.63727730537939,37.6602101293956
102050,Дворовая территория,237464.0,4,55.637428,37.680194
102056,Фитнес клуб «СССР»,,3,55.814593,37.693785
102057,Дворовая территория,237464.0,4,55.639014,37.678334
102060,Дворовая территория,237470.0,4,55.63663814681327,37.65082838746231
102063,Дворовая территория,237458.0,4,55.59825425021678,37.65494713778928
102067,Досуговый центр «Млечный путь»,237431.0,3,55.72841721768364,37.6714641065222
102070,Досуговый центр «Юность»,237342.0,3,55.80783426820265,37.81356336866528
102072,Досуговый центр «Соколинка»,237397.0,3,55.76821908009286,37.73054629652533
102073,Дворовая территория,237458.0,4,55.5975133982586,37.65538499960245
102075,Досуговый центр «Соколинка»,237397.0,3,55.76388299196203,37.73466472619391
102076,Дворовая территория,237465.0,4,55.65859637674817,37.62364478126497
102077,"Парк, озелененная городская территория «Лесопарковая зона «Лосиный остров»»",263004.0,2,55.82241304029277,37.71617996545175
102078,Спортивно-досуговый клуб «Движение»,237469.0,3,55.60894061709213,37.71574450507761
102079,Дворовая территория,237469.0,4,55.602968,37.717672
102081,Дворовая территория,237465.0,4,55.66698185822622,37.63176242983141
102082,Дворовая территория,237397.0,4,55.773991,37.737102
102083,Дворовая территория,237469.0,4,55.595944,37.722765
102084,Дворовая территория,237465.0,4,55.661742809742194,37.63048711558308
102085,Дворовая территория,237465.0,4,55.66920260467578,37.62713702412245
102086,ВМХ-велодром «Амурский»,219165.0,2,55.807155360683865,37.75973536696702
102088,Дворовая территория,237464.0,4,55.65188947340528,37.64810992181253
102089,Дворовая территория,237398.0,4,55.792223630155306,37.68111937723668
102090,Дворовая территория,237395.0,4,55.793369,37.725182
102093,Досуговый центр «Сабурово»,237344.0,3,55.63989114342337,37.69215793077644
102094,Дворовая территория,237464.0,4,55.64111847402853,37.69178137230758
102095,Дворовая территория,237464.0,4,55.63916949448189,37.69199768505612
102098,Дворовая территория,237398.0,4,55.78969443179585,37.66407458691778
102101,Досуговый центр «Сабуровец»,237344.0,3,55.63763062192376,37.69759162636094
102106,Дворовая территория,237465.0,4,55.67040036555267,37.62935199379009
102108,Дворовая территория,237397.0,4,55.767874,37.73968
102109,Дворовая территория,237468.0,4,55.625039527145134,37.70623723999359
102110,Дворовая территория,237468.0,4,55.621804391129785,37.70906935276084
102111,Дворовая территория,237465.0,4,55.66632619609996,37.625182646201296
102114,Дворовая территория,237468.0,4,55.615319,37.710045
102115,Дворовая территория,237468.0,4,55.614312,37.713369
102116,Дворовая территория,237398.0,4,55.795451457748975,37.69001784452328
102117,Дворовая территория,237395.0,4,55.794862,37.734928
102118,Дворовая территория,237388.0,4,55.777277,37.820529
102119,Дворовая территория,237397.0,4,55.78721096876002,37.73766239823024
102120,Дворовая территория,237397.0,4,55.78093128809214,37.722659639552425
102122,Дворовая территория,237398.0,4,55.79474150452659,37.68360312605349
102123,Государственное бюджетное образовательное учреждение среднего профессионального образования города Москвы медицинское училище № 4,237334.0,4,55.66626335793099,37.63168695212052
102124,Дворовая территория,237397.0,4,55.78341414338729,37.726693802575696
102126,Дворовая территория,237388.0,4,55.7516892983217,37.82596064359872
102127,Дворовая территория,237392.0,4,55.749066,37.828901
102128,Дворовая территория,237342.0,4,55.8023165777216,37.72061632377222
102129,Досуговый центр,,3,55.817537,37.72546
102131,Дворовая территория,237397.0,4,55.78001423117996,37.72375870218968
102132,Дворовая территория,237397.0,4,55.78126166383184,37.7381707589716
102134,Дворовая территория,237388.0,4,55.77569009261012,37.82907689068515
102135,Дворовая территория,237398.0,4,55.79396699702823,37.69099536851824
102136,Дворовая территория,237397.0,4,55.784045627392096,37.71106416123167
102137,Дворовая территория,237398.0,4,55.7885471835992,37.67467093167438
102139,Дворовая территория,237388.0,4,55.779116630160914,37.83637961766585
102140,Дворовая территория,237472.0,4,55.619335,37.604232
102141,Дворовая территория,237397.0,4,55.783018162308224,37.711022491918925
102143,Дворовая территория,237397.0,4,55.78353194105441,37.73258518312994
102145,Дворовая территория,237472.0,4,55.61673234526227,37.6016440766794
102148,Спортивный комплекс «Измайлово»,219165.0,2,55.80616,37.803631
102149,Спортивный комплекс высшего учебного заведения,266981.0,2,55.59689,37.597342
102151,Дворовая территория,237472.0,4,55.608320451498535,37.59942715963782
102153,Дворовая территория,237393.0,4,55.734841934246205,37.8570261421606
102154,Дворовая территория,237472.0,4,55.60688263477471,37.598180670157866
102155,Дворовая территория,237393.0,4,55.734635358224665,37.85300965397882
102156,Дворовая территория,237393.0,4,55.73598258367871,37.85682570687391
102157,Дворовая территория,237393.0,4,55.73593580967744,37.85830635957069
102158,Дворовая территория,237473.0,4,55.59867745028901,37.59467654197013
102159,Дворовая территория,237393.0,4,55.736838,37.853991
102162,Дворовая территория,237473.0,4,55.596921951117146,37.594820815293126
102163,Дворовая территория,237393.0,4,55.737536058655934,37.85933601825736
102164,Досуговый центр «Диалог»,237425.0,3,55.78508528870175,37.639435569073285
102166,Дворовая территория,237393.0,4,55.73862024761926,37.853454871532776
102167,Дворовая территория,237393.0,4,55.739756604039705,37.85574661177823
102171,Дворовая территория,237393.0,4,55.738591791162335,37.86283449667644
102173,Дворовая территория,237393.0,4,55.74384558867576,37.867693565140726
102174,Дворовая территория,237393.0,4,55.74435811846087,37.87455303113745
102175,Дворовая территория,237393.0,4,55.73293621791717,37.85631898345427
102176,Спортивный зал «Центр Дальневосточных единоборств «Айкидо Бахадзубу»,237339.0,3,55.77378872085918,37.67800930989498
102177,Дворовая территория,237397.0,4,55.78252586297047,37.74098537278973
102178,Дворовая территория,237397.0,4,55.78337940997749,37.72925390353733
102179,Дворовая территория,237397.0,4,55.78216320592995,37.7299666760804
102180,Дворовая территория,237397.0,4,55.78143346415969,37.72661302898853
102184,Дворовая территория,237388.0,4,55.773186,37.832593
102185,Спортивный комплекс учреждения социальной защиты населения,237336.0,3,55.77181403224608,37.67853367316896
102186,Дворовая территория,237388.0,4,55.76939065511283,37.82318917031863
102187,Дворовая территория,237471.0,4,55.63038580269972,37.611139746602646
102188,Дворовая территория,237388.0,4,55.780320014245135,37.83656652490727
102189,Дворовая территория,237388.0,4,55.78005417634903,37.83392295277694
102190,Дворовая территория,237471.0,4,55.628913517773874,37.61253850140355
102195,Дворовая территория,237471.0,4,55.626848,37.612281
102199,Дворовая территория,237473.0,4,55.604073898760525,37.593476959072966
102200,Дворовая территория,237466.0,4,55.67883686565598,37.67704493679344
102201,Спортивный комплекс образовательного учреждения,,4,55.683925581955776,37.67669851643031
102202,Дворовая территория,237460.0,4,55.63360437503589,37.75996115996662
102203,ГБОУ специальная (коррекционная) школа-интернат № 49 им. Г.И.Россолимо,237336.0,4,55.71579330421538,37.91034254042834
102206,Дворовая территория,237460.0,4,55.63084055768206,37.76323481200521
102207,Дворовая территория,237397.0,4,55.779100718681256,37.723226401216834
102209,Дворовая территория,237460.0,4,55.63613649124608,37.757395684357554
102210,Фитнес клуб «Старт-7»,237424.0,3,55.76742503397335,37.57956146566854
102211,Дворовая территория,237388.0,4,55.75817987901181,37.83559941335729
102212,Дворовая территория,237388.0,4,55.75593461035922,37.83057720613127
102213,Дворовая территория,237388.0,4,55.75490333875229,37.83559120558974
102215,Дворовая территория,237388.0,4,55.75181424797307,37.82947313298107
102216,Дворовая территория,237388.0,4,55.76612434419108,37.83598154721896
102220,Досуговый центр «Титан»,237428.0,3,55.76866319306868,37.67399087577206
102223,Досуговый центр «спортивно-досуговый центр «Орион»,237339.0,3,55.72723189021065,37.633539922593314
102225,Спортивный комплекс высшего учебного заведения «Военный университет Министерства обороны Российской Федерации»,259810.0,2,55.767656,37.59418
102226,Фитнес клуб «Фреш»,,3,55.73692198850467,37.63612160791762
102227,Фитнес клуб «Центр Йоги Айенгара»,,3,55.73357827835101,37.638948660015686
102233,Дворовая территория,237393.0,4,55.74477386791087,37.87652274943288
102234,Дворовая территория,237388.0,4,55.780041,37.826574
102235,Дворовая территория,237395.0,4,55.800790656486086,37.71851591893935
102236,Парк народный «Ивановские пруды»,237388.0,3,55.77065608151274,37.83789317260947
102237,Дворовая территория,237397.0,4,55.76243733387038,37.74401181274297
102238,Дворовая территория,237388.0,4,55.75282477752639,37.83769304065647
102239,Дворовая территория,237388.0,4,55.76209993543412,37.83568024213561
102241,Дворовая территория,237398.0,4,55.800255697247536,37.69645146017744
102242,Дворовая территория,237393.0,4,55.732354915206,37.85174987315478
102243,Дворовая территория,237388.0,4,55.76254157252047,37.82968315899413
102245,Дворовая территория,237398.0,4,55.795327,37.694028
102247,Дворовая территория,237466.0,4,55.67484524728366,37.69011444033565
102248,Дворовая территория,237397.0,4,55.78011021968026,37.72951445406164
102250,Дворовая территория,237398.0,4,55.784464474861295,37.68818097689073
102251,Дворовая территория,237466.0,4,55.684022686215386,37.70892177685196
102252,Дворовая территория,237398.0,4,55.78325998958799,37.69511210527932
102253,Дворовая территория,237395.0,4,55.80164756935277,37.70434046777141
102255,Дворовая территория,237393.0,4,55.73521030084868,37.849967399149214
102260,Дворовая территория,237393.0,4,55.74242618304231,37.8579066748202
102261,Дворовая территория,237393.0,4,55.74242751217531,37.852744655156044
102262,Дворовая территория,237393.0,4,55.74223659626896,37.84986753127878
102263,Дворовая территория,237393.0,4,55.73850282125112,37.851177312403216
102264,Дворовая территория,237393.0,4,55.73680130432641,37.85006012327425
102265,Дворовая территория,237393.0,4,55.73665,37.84676
102271,Дворовая территория,237388.0,4,55.76582499120666,37.82662276958326
102272,Дворовая территория,237466.0,4,55.67723922421178,37.69378232568507
102275,Дворовая территория,237392.0,4,55.74857613542545,37.816418498887046
102276,Дворовая территория,237392.0,4,55.74819022741136,37.81506220830188
102277,Дворовая территория,237388.0,4,55.75924942213787,37.82184801115743
102278,Дворовая территория,237388.0,4,55.76180527360668,37.82484707402793
102279,Дворовая территория,237388.0,4,55.76942078839447,37.83055872906196
102280,Дворовая территория,237466.0,4,55.68051064484474,37.70234870478004
102281,Дворовая территория,237388.0,4,55.76787038289639,37.8255469150478
102282,"Парк, озелененная городская территория «Парк культуры и отдыха в Садовниках»",237332.0,2,55.66242855363894,37.65088625194412
102283,Дворовая территория,237388.0,4,55.76637761737957,37.8330976183989
102284,Дворовая территория,237388.0,4,55.76835893433736,37.8361207837422
102285,Дворовая территория,237388.0,4,55.766530599950805,37.8310558137363
102286,Дворовая территория,237465.0,4,55.66390174100968,37.65014436227043
102287,Дворовая территория,237388.0,4,55.769574999232944,37.83439872032445
102289,Дворовая территория,237467.0,4,55.66751871374614,37.61100271102251
102291,Дворовая территория,237388.0,4,55.76773652298372,37.83372068184338
102292,Дворовая территория,237388.0,4,55.76618518294825,37.82940215205577
102293,"Спортивная школа олимпийского резерва «ГБПОУ «МССУОР № 1» Москомспорта, ул. Парковая 16-я, дом 11",219165.0,4,55.79487265062171,37.82198879312114
102296,Спортивный зал «ГБПОУ «МССУОР № 1» Москомспорта»,219165.0,3,55.798672,37.822209
102297,Дворовая территория,237392.0,4,55.75694100544063,37.82361821180632
102299,Дворовая территория,237393.0,4,55.7347398711397,37.85956692749784
102300,Дворовая территория,237393.0,4,55.74283035436155,37.87859103869001
102301,Дворовая территория,237393.0,4,55.74234861377051,37.877716507839786
102302,Дворовая территория,237461.0,4,55.72148891672516,37.65999404258916
102304,Дворовая территория,237463.0,4,55.62069385062548,37.75152568584539
102305,Дворовая территория,237463.0,4,55.61893699670337,37.75662837576889
102306,Дворовая территория,237393.0,4,55.739919,37.872577
102308,Дворовая территория,237395.0,4,55.80709872605486,37.72913250828845
102309,Дворовая территория,237463.0,4,55.61970817950276,37.749739202727135
102310,Дворовая территория,237395.0,4,55.78981563760827,37.71522039794861
102311,Дворовая территория,237463.0,4,55.61805669988036,37.75664269801084
102312,Дворовая территория,237395.0,4,55.80389479604983,37.71318844112725
102314,Дворовая территория,237395.0,4,55.80539787928256,37.72359574150529
102316,Дворовая территория,237393.0,4,55.73320571905989,37.85331207902908
102317,Дворовая территория,237458.0,4,55.5889232198846,37.66927637260957
102319,Дворовая территория,237458.0,4,55.58520839645215,37.68358044966568
102320,Дворовая территория,237393.0,4,55.74263312453736,37.86179689666677
102321,Дворовая территория,237388.0,4,55.779271667835054,37.830016945033606
102324,Дворовая территория,237458.0,4,55.583963,37.685952
102328,Дворовая территория,237388.0,4,55.75847533874236,37.83414647394104
102329,Дворовая территория,237458.0,4,55.58458798612316,37.6923070853852
102330,Дворовая территория,237397.0,4,55.79091305034379,37.74182006507668
102332,Дворовая территория,237398.0,4,55.7973857696492,37.68692752371961
102333,Дворовая территория,237458.0,4,55.58475381912591,37.69623200133034
102334,Дворовая территория,237458.0,4,55.585851097573816,37.661158760177294
102336,Дворовая территория,237462.0,4,55.71618442334369,37.59157195411201
102337,Дворовая территория,237462.0,4,55.710912792855545,37.583346836757805
102338,Спортивный комплекс среднего профессионального образовательного учреждения «Медицинское училище № 5»,237334.0,4,55.71080923380718,37.58831049011312
102339,Дворовая территория,237462.0,4,55.71016461050183,37.58616330476319
102341,Дворовая территория,237462.0,4,55.708607,37.58667
102343,Фитнес клуб «А-фитнес»,,3,55.75496106281231,37.60628914859462
102344,Дворовая территория,237458.0,4,55.59803976622213,37.6692000412182
102347,Дворовая территория,237458.0,4,55.596925,37.670241
102349,Дворовая территория,237458.0,4,55.580101,37.68579
102350,Дворовая территория,237458.0,4,55.59414309688628,37.6711081545884
102351,Дворовая территория,237458.0,4,55.59242681856543,37.66946700567208
102352,Дворовая территория,237458.0,4,55.59257954830096,37.66894210334858
102358,Дворовая территория,237470.0,4,55.62781797299328,37.66505057676808
102359,Дворовая территория,237470.0,4,55.62585628569792,37.666963833969774
102361,Спортивный комплекс среднего профессионального образовательного учреждения «ГБПОУ «МССУОР № 3» Москомспорта»,219165.0,4,55.786819,37.732341
102362,Дворовая территория,237470.0,4,55.62355720187933,37.66687462323153
102363,Спортивный комплекс высшего учебного заведения,266981.0,2,55.71985385424881,37.60078238486235
102364,Дворовая территория,237461.0,4,55.70776270568554,37.6176625474064
102365,Дворовая территория,237459.0,4,55.59137,37.652634
102367,Дворовая территория,237459.0,4,55.591966,37.648897
102368,Дворовая территория,237459.0,4,55.59002829832137,37.64754474163035
102369,Дворовая территория,237459.0,4,55.588659,37.648924
102371,Дворовая территория,237459.0,4,55.590073,37.644082
102373,Дворовая территория,237458.0,4,55.57532946118504,37.66912139683871
102374,Досуговый центр «Норд»,237425.0,3,55.76864957950534,37.630084068718496
102383,Спортивный комплекс образовательного учреждения,266981.0,4,55.763594,37.643758
102388,Детский досуговый центр «служебный»,237336.0,3,55.7905433745234,37.59762953880687
102389,Фитнес клуб «Репаблика»,,3,55.73040065821308,37.62741202759015
102391,Дворовая территория,237465.0,4,55.68187066914196,37.658580142008056
102392,Дворовая территория,237466.0,4,55.684777,37.66936
102393,Дворовая территория,237466.0,4,55.68580649077369,37.677794892217165
102394,Дворовая территория,237466.0,4,55.68702548703977,37.68016452813921
102395,Дворовая территория,237466.0,4,55.68861318984565,37.684632209036224
102396,Дворовая территория,237466.0,4,55.690349,37.693543
102398,Дворовая территория,237465.0,4,55.67950390296766,37.63569278731511
102402,Дворовая территория,237465.0,4,55.68063707046352,37.64590528526745
102403,Дворовая территория,237465.0,4,55.68003162322529,37.643944003328
102404,Дворовая территория,237465.0,4,55.67715970166204,37.657207615789375
102405,Дворовая территория,237465.0,4,55.67649452424961,37.65855971620221
102406,Спортивный комплекс «Ритм»,219165.0,3,55.731654202314914,37.41791372119732
102407,Дворовая территория,237430.0,4,55.78329449257662,37.66000138534422
102415,Дворовая территория,237467.0,4,55.659241,37.620761
102417,Дворовая территория,237469.0,4,55.601559,37.73818
102419,Дворовая территория,237458.0,4,55.60086778127685,37.66986446936422
102422,Дворовая территория,237465.0,4,55.67893260520163,37.661428031139735
102423,Дворовая территория,237465.0,4,55.68042183605348,37.6495451194695
102424,Дворовая территория,237465.0,4,55.68291222937697,37.65329002183319
102425,Дом культуры «Косино»,,3,55.71318765322136,37.85374878231155
102426,Спортивный клуб «Демпф-спорт»,,3,55.74498841263619,37.54989425941344
102430,Спортивный комплекс высшего учебного заведения,266981.0,2,55.702353,37.625478
102431,Фитнес клуб «Зебра»,,3,55.734204308692185,37.67049316775542
102432,Дворовая территория,237469.0,4,55.607595,37.707
102433,Дворовая территория,237469.0,4,55.61129431997175,37.72720868246385
102435,Спортивный комплекс высшего учебного заведения «Московский государственный университет имени Михаила Васильевича Ломоносова»,266981.0,2,55.702952,37.530822
102436,Дворовая территория,237463.0,4,55.61423010280509,37.73030320456424
102438,ГБУ города Москвы «Молодёжный центр «Галактика» филиал «Центр досуга семьи и молодежи «Астра»,237413.0,3,55.66844206543118,37.50839390836714
102439,Дворовая территория,237468.0,4,55.61336638768859,37.72692825352016
102440,Дворовая территория,237463.0,4,55.613814,37.732027
102444,Дворовая территория,237463.0,4,55.616889414217646,37.73947363493603
102445,Дворовая территория,237463.0,4,55.615141883331525,37.746739536059664
102446,Дворовая территория,237463.0,4,55.61617145671072,37.74740902886611
102447,Дворовая территория,237463.0,4,55.616432,37.749211
102448,Дворовая территория,237463.0,4,55.61515252637337,37.74953412276355
102449,Дворовая территория,237463.0,4,55.61693,37.755751
102450,Дворовая территория,237463.0,4,55.61831949472075,37.75980813687491
102451,Фитнес клуб «ВитаЛита»,,3,55.817281080036985,37.5845717782416
102453,Дворовая территория,237463.0,4,55.61975500139651,37.76091309294178
102454,Дворовая территория,237468.0,4,55.60983080867065,37.70392053233109
102456,Дворовая территория,237463.0,4,55.62508976293241,37.73464895544507
102457,Дворовая территория,237463.0,4,55.62515520958452,37.735912394669626
102458,Дворовая территория,237463.0,4,55.62268303512932,37.732319516800665
102459,Яблоневый сад Зябликово,237463.0,2,55.61710884100237,37.72936019275616
102460,Дворовая территория,237463.0,4,55.616188,37.731488
102461,Спортивный комплекс высшего учебного заведения «Московский государственный технический университет имени Н.Э. Баумана»,266981.0,2,55.77221040847632,37.69775789100696
102463,Спортивный зал «Каратэ-Клуб»,237424.0,3,55.75934218194899,37.59410680226133
102464,Спортивный комплекс среднего профессионального образовательного учреждения «Медицинское училище №1»,237334.0,4,55.71474621590418,37.632700918224906
102466,Спортивный комплекс высшего учебного заведения «Московский государственный медико-стоматологический университет имени А.И. Евдокимова»,260857.0,2,55.77618268802785,37.61554955140466
102468,Дворовая территория,237460.0,4,55.63726045338332,37.76475524880135
102469,Дворовая территория,237458.0,4,55.59528805247577,37.66898113704633
102470,Дворовая территория,237458.0,4,55.5806368044225,37.67415864688572
102471,Фитнес клуб «Д-спорт»,,3,55.74393770444844,37.587105863041
102473,Каток с искусственным льдом,237344.0,3,55.6264028908944,37.75679354365533
102474,Досуговый центр «Ровесник»,237414.0,3,55.69767230778265,37.501483715864175
102475,Фитнес клуб «Доктор Лодер»,,3,55.72195998077833,37.65407228547743
102476,Дворовая территория,237464.0,4,55.6427832043099,37.65704364689176
102477,Дворовая территория,237470.0,4,55.63052490328411,37.65569555281791
102478,Фитнес клуб «Зебра»,,3,55.72174111164846,37.64776142281964
102479,Дворовая территория,237470.0,4,55.63412428449439,37.661977986274
102480,Дворовая территория,237470.0,4,55.6318580534847,37.661105877001205
102481,Дворовая территория,237470.0,4,55.63064518996277,37.66264486638551
102487,Дворовая территория,237466.0,4,55.683229,37.66821
102489,Физкультурно-оздоровительный комплекс «Некоммерческое партнерство «Кунцево»,,3,55.7192554252731,37.439092997757214
102491,Дворовая территория,237465.0,4,55.67423717370583,37.66043384290389
102492,Стадион «Красная Пресня»,,1,55.75729920445352,37.57701358653436
102493,Усадьба «Коломенское»,237332.0,2,55.66080339292755,37.66330891136166
102496,Дворовая территория,237412.0,4,55.683040311462925,37.46010019986948
102497,Дворовая территория,237465.0,4,55.66933353235639,37.6587109959228
102499,Фитнес клуб «Ворлд Джим»,,3,55.71123863121652,37.63289310262883
102500,Дворовая территория,237465.0,4,55.66949882884034,37.65913877502256
102501,Дворовая территория,237473.0,4,55.59774689246459,37.61364469739864
102503,Дворовая территория,237473.0,4,55.59841766313826,37.60860320176153
102505,Дворовая территория,237473.0,4,55.59540745403927,37.606762285943056
102506,Дворовая территория,237473.0,4,55.59790733565287,37.60983537421962
102507,Плоскостное спортивное сооружение,237344.0,3,55.59252,37.612488
102509,Дворовая территория,237473.0,4,55.59682033338313,37.61077673074607
102510,Дворовая территория,237473.0,4,55.59456220475831,37.612332518440624
102512,Дворовая территория,237473.0,4,55.60084328795728,37.607536176918096
102514,Дворовая территория,237470.0,4,55.62180149324445,37.65930903095294
102515,Дворовая территория,237470.0,4,55.62264933041648,37.65181280975784
102517,Досуговый центр «Личность»,237470.0,3,55.622975,37.648897
102519,Дворовая территория,237470.0,4,55.62134909202444,37.666044513047446
102520,Фитнес-клуб «Рэдиссон Славянская»,,3,55.741809,37.567788
102522,Дворовая территория,237470.0,4,55.625196,37.651915
102523,Дворовая территория,237470.0,4,55.62485118149995,37.65012702347895
102525,Дворовая территория,237470.0,4,55.625034928749145,37.647631004927874
102526,Дворовая территория,237462.0,4,55.69109299158656,37.60922060064225
102529,Дворовая территория,237471.0,4,55.63848634772556,37.59621612994344
102531,Фитнес клуб «Ворлд Класс»,,3,55.73160203016565,37.615976603056495
102535,Дворовая территория,237467.0,4,55.662572,37.613772
102536,Дворовая территория,237467.0,4,55.655122,37.606083
102539,Дворовая территория,237467.0,4,55.643556,37.606227
102541,Дворовая территория,237465.0,4,55.66082337924557,37.62765754190743
102543,Дворовая территория,237465.0,4,55.660418781648,37.63181308162926
102544,Дворовая территория,237466.0,4,55.680174,37.666557
102545,Дворовая территория,237466.0,4,55.68225,37.68253
102547,Дворовая территория,237466.0,4,55.68327,37.678415
102548,Дворовая территория,237466.0,4,55.683163,37.683643
102550,Дворовая территория,237466.0,4,55.683529,37.679403
102551,Дворовая территория,237466.0,4,55.683351,37.682323
102552,Дворовая территория,237466.0,4,55.684539,37.688881
102553,Дворовая территория,237466.0,4,55.686645,37.68977
102554,Спортивный комплекс высшего учебного заведения «Физкультурно-оздоровительный комплекс Московской государственной академии водного транспорта»,266981.0,2,55.686746,37.696516
102555,Дворовая территория,237466.0,4,55.67861,37.670681
102557,Плоскостное спортивное сооружение,237344.0,3,55.62472632547238,37.60219882467749
102559,Дворовая территория,237471.0,4,55.636621,37.60549
102560,Дворовая территория,237471.0,4,55.62857822483952,37.59379176890572
102561,"Физкультурно-оздоровительный комплекс с бассейном «ГБУ «ЦФКиС ЗАО г. Москвы» Москомспорта, на ул. Родниковой»",219165.0,3,55.63676123408872,37.37939626689904
102563,Дворовая территория,237471.0,4,55.6274040748253,37.59189130841226
102564,Дворовая территория,237471.0,4,55.63407627729158,37.61440886548997
102565,Дворовая территория,237471.0,4,55.626167,37.592339
102566,Бассейн плавательный «Панджшер»,,3,55.634974790326126,37.6113693304129
102570,Дворовая территория,237469.0,4,55.602846,37.743552
102572,Дворовая территория,237469.0,4,55.603441312864106,37.74566191883967
102576,Фитнес клуб «Премьер-спорт»,,3,55.71743330479032,37.50946328445043
102577,Фитнес-клуб «Свим энд Джим»,,3,55.68353504395818,37.49299474399903
102578,Досуговый центр «Сказочная страна»,237410.0,3,55.71863726301242,37.40042230754153
102579,Спортивный зал,237410.0,3,55.71900486911244,37.39957000219084
102580,Стадион «Медик»,262889.0,2,55.74120888560984,37.39365789220423
102581,Клуб дзюдо «Мастер»,237346.0,3,55.725442295333245,37.42025816041104
102582,Стадион «Текстильщик»,,2,55.71828509345414,37.42504049272692
102588,Фитнес клуб «Кимберли Фит»,,3,55.729143,37.648789
102590,Фитнес клуб «Камелот Джим»,,3,55.72493251274913,37.57696105481594
102591,Фитнес клуб Очаково,,3,55.69761039304021,37.4485199722324
102592,Дворовая территория,237461.0,4,55.70953254800873,37.661264162433405
102594,Дворовая территория,237465.0,4,55.666832359346834,37.64931799705303
102595,Дворовая территория,237465.0,4,55.66370170894772,37.647238754329145
102597,Дворовая территория,237465.0,4,55.6621757417218,37.64604672615744
102598,Дворовая территория,237465.0,4,55.67213130332096,37.65193324975548
102601,Лыжная трасса № 8 природно-исторического парка «Битцевский лес»,237335.0,3,55.599062,37.581038
102603,Дворовая территория,237470.0,4,55.62714653234037,37.64827892165785
102604,Дворовая территория,237470.0,4,55.62182638042299,37.64658039716168
102605,Дворовая территория,237470.0,4,55.6218001969908,37.649024839523065
102606,Дворовая территория,237470.0,4,55.6173912427533,37.64616898931096
102609,Дворовая территория,237460.0,4,55.63253860503711,37.74153081173064
102615,Дворовая территория,237460.0,4,55.63357892307102,37.74799745592894
102617,Плоскостное спортивное сооружение,237464.0,3,55.63517545101936,37.704708659502806
102618,Лыжная трасса пойма Москва реки,237344.0,3,55.63477888111953,37.71523155945201
102621,Дворовая территория,237460.0,4,55.63907973841656,37.75607045162821
102622,Дворовая территория,237460.0,4,55.64035550532867,37.7608317329623
102623,Дворовая территория,237470.0,4,55.615697743670935,37.64808395227492
102625,Дворовая территория,237460.0,4,55.641581384014366,37.7640183969793
102628,Дворовая территория,237460.0,4,55.64338838322642,37.77164447928425
102630,Дворовая территория,237460.0,4,55.64182241845306,37.7739217347764
102632,Дворовая территория,237462.0,4,55.70814467188629,37.58852326202352
102633,Досуговый центр «Ровесник»,237414.0,3,55.72581528639126,37.52633554232787
102634,Досуговый центр «Ровесник»,237414.0,3,55.712198,37.521255
102636,Дворовая территория,237461.0,4,55.71158927519593,37.66431583644638
102637,Дворовая территория,237461.0,4,55.717031,37.66035
102638,Дворовая территория,237473.0,4,55.59063307676774,37.60824860904912
102639,Дворовая территория,237473.0,4,55.58964094352342,37.61021300543257
102640,Спортивный досуговый клуб «Патриот»,237339.0,3,55.738018041121805,37.64400182936095
102641,Фитнес клуб «Санни Джим»,,3,55.73614968111603,37.64469808222339
102642,Фитнес клуб «Поинт»,,3,55.72151391204039,37.61340241095384
102643,Комплекс спортивных сооружений «теннисный клуб «Теннис плэй»,,2,55.75181765786202,37.55039079140011
102647,Дворовая территория,237473.0,4,55.59331129532413,37.60287109815516
102648,Дворовая территория,237473.0,4,55.59413344763959,37.60327961904303
102650,Дворовая территория,237473.0,4,55.592781343609616,37.60442614057718
102657,Дворовая территория,237468.0,4,55.61700540437713,37.72212474363264
102665,Досуговый центр «спортклуб Покровка»,237428.0,3,55.759952110298094,37.65147733570439
102666,Досуговый центр «Гайдаровец»,237332.0,3,55.75898,37.652571
102667,Дворовая территория,237468.0,4,55.61331688256558,37.7215554610938
102668,Дворовая территория,237469.0,4,55.60838412008959,37.72505755074848
102669,Дворовая территория,237469.0,4,55.604605,37.726619
102670,Дворовая территория,237469.0,4,55.60394673236639,37.72743049321656
102672,Дворовая территория,237468.0,4,55.62301056885463,37.71675424352149
102674,Дворовая территория,237461.0,4,55.72724869248679,37.653086548995255
102676,Дворовая территория,237418.0,4,55.8496572707366,37.35085584954551
102678,Дворовая территория,237418.0,4,55.847670944528346,37.34781876635663
102681,Фитнес клуб Азон,,3,55.76618482855887,37.57149540195009
102686,Дворовая территория,237464.0,4,55.63945689212385,37.66904979638895
102687,Дворовая территория,237464.0,4,55.639654,37.668893
102689,Дворовая территория,237464.0,4,55.643769,37.67254
102690,Дворовая территория,237472.0,4,55.6120045095096,37.58527734113992
102691,Фитнес клуб «ДонСпорт Алые паруса»,,3,55.80667231540465,37.45033984712018
102693,Дворовая территория,237418.0,4,55.853981577320674,37.34733603353179
102694,Дворовая территория,237472.0,4,55.60877137541757,37.58165081793676
102695,Дворовая территория,237472.0,4,55.60968877999544,37.58459638634992
102696,Дворовая территория,237472.0,4,55.60717286773389,37.58301393529104
102697,Дворовая территория,237472.0,4,55.60747561117593,37.584947310696194
102698,Дворовая территория,237472.0,4,55.60669336710812,37.5809265252639
102702,Дворовая территория,237472.0,4,55.610484337290856,37.59899585167552
102703,Дворовая территория,237472.0,4,55.615328160188966,37.58036009726009
102706,Дворовая территория,237472.0,4,55.61109586206025,37.59499162806751
102711,Дворовая территория,237472.0,4,55.61402985891972,37.599127156793344
102712,Дворовая территория,237472.0,4,55.61444578909624,37.59779551823784
102714,Фитнес клуб «Зебра»,,3,55.70725813751723,37.64953999383269
102715,Дворовая территория,237461.0,4,55.712890213089054,37.66235536970335
102717,Дворовая территория,237461.0,4,55.71524074136609,37.610266160409616
102718,Дворовая территория,237461.0,4,55.71916052930893,37.624007063284346
102719,Фитнес клуб «Биосфера»,,3,55.717412208732455,37.59981056752963
102722,Плоскостное спортивное сооружение,237344.0,3,55.62262510119052,37.69490651531635
102729,Спортивный комплекс высшего учебного заведения «Государственный университет Министерства финансов России»,266981.0,2,55.759603,37.634784
102730,Фитнес клуб Носорог,,3,55.76120580686424,37.655504026334505
102739,Дворовая территория,237470.0,4,55.63170113220048,37.67917430260043
102741,Дворовая территория,237470.0,4,55.634579237724566,37.675078598418345
102743,Дворовая территория,237470.0,4,55.63333744596717,37.674710888936914
102745,Дворовая территория,237464.0,4,55.646487,37.660835
102746,Дворовая территория,237464.0,4,55.64526723208063,37.66464488325333
102747,Дворовая территория,237464.0,4,55.643571,37.667501
102748,ГБУ ЦДМСИ «КРЫЛЬЯ»,237347.0,3,55.85106784591808,37.43447523903028
102750,Дворовая территория,237464.0,4,55.647828,37.649373
102754,Дворовая территория,237463.0,4,55.621074,37.744684
102757,Дворовая территория,237463.0,4,55.618689,37.745034
102758,Дворовая территория,237463.0,4,55.620184,37.74189
102761,Дворовая территория,237463.0,4,55.616661,37.745322
102762,Спортивный комплекс дошкольного образовательного учреждения,219814.0,4,55.732768,37.609658
102763,Центральный стрелково-спортивный клуб РОСТО,,3,55.8221502538493,37.444913660850204
102764,Дворовая территория,237463.0,4,55.618918,37.742546
102765,Дворовая территория,237463.0,4,55.617739,37.737749
102767,Дворовая территория,237463.0,4,55.617027,37.74286
102768,Фитнес клуб АЛЛО женский фитнес клуб,,3,55.77856226684703,37.59495893292191
102771,Спортивный комплекс образовательного учреждения «служебный»,,4,55.766415,37.642896
102772,Стадион «Луч»,,2,55.82365811772086,37.44596567893177
102776,Фитнес клуб «Квантум Арарат Парк Хаятт»,,3,55.760401868812366,37.621777179487005
102777,Спортивный комплекс среднего профессионального образовательного учреждения «ФГБОУ ВО «Высшее театральное училище (институт) им. М.С. Щепкина при государственном академическом Малом театре России»»,260603.0,4,55.76036240478943,37.62117906074473
102778,Дворовая территория,237463.0,4,55.615476,37.743274
102779,Дворовая территория,237463.0,4,55.62914105805125,37.73962611832777
102782,АНО Время Героев,237424.0,3,55.755672,37.598771
102784,Фитнес клуб «Фёст энд онли»,,3,55.81997110404176,37.46577825195935
102787,Дворовая территория,237463.0,4,55.628652,37.735683
102788,Спортивный зал «АНО КЕ Комбат»,237427.0,3,55.75481284988138,37.585375868173806
102791,Дворовая территория,237463.0,4,55.62944998365131,37.7447199364472
102793,Дворовая территория,237463.0,4,55.630111,37.748232
102796,Дворовая территория,237468.0,4,55.62385960152964,37.6995593586891
102799,Дворовая территория,237463.0,4,55.62727,37.740516
102804,Лыжная трасса Зябликово,237463.0,3,55.6273,37.749113
102805,Дворовая территория,237463.0,4,55.62734689405112,37.74988476455687
102809,Досуговый центр «Автономная некоммерческая организация Физкультурно-оздоровительный центр Басманный»,237428.0,3,55.771955,37.664186
102811,Дворовая территория,237461.0,4,55.70897365290567,37.60880228067947
102813,Фитнес клуб «Манго клуб»,,3,55.78229295131848,37.60023905204897
102816,Дворовая территория,237466.0,4,55.67702843767445,37.67364970087138
102818,Дворовая территория,237462.0,4,55.7093468639401,37.59871308037192
102821,Спортивный комплекс образовательного учреждения «служебный»,262196.0,4,55.73294,37.651627
102825,Дворовая территория,237473.0,4,55.60831928441243,37.61379139278884
102827,Фитнес клуб «Аква Спа в Аквамарин Отеле»,,3,55.739304962921565,37.63556743648666
102834,Дворовая территория,237465.0,4,55.67674879592634,37.655002507407886
102835,Дворовая территория,237461.0,4,55.710895814756185,37.61551413274569
102836,Комплекс спортивных сооружений «Олимпийский»,,2,55.783579138408186,37.62647513607658
102838,Фитнес клуб «Ворлд Класс»,,3,55.78300400199815,37.6252094507171
102842,Фитнес клуб «Азимут спорт»,,3,55.78498045157155,37.62445271951752
102843,Московский Дом ветеранов войн и Вооруженных Сил,237336.0,3,55.784749,37.621426
102846,Дворовая территория,237461.0,4,55.722114220760325,37.66085339974312
102847,Дворовая территория,237461.0,4,55.71930100454737,37.661552690996245
102849,Дворовая территория,237461.0,4,55.72635985165741,37.66152935609146
102850,Дворовая территория,237462.0,4,55.713836,37.596678
102851,Дворовая территория,237462.0,4,55.71461458536496,37.5956319806917
102852,Дворовая территория,237461.0,4,55.702857049927154,37.66060533953098
102853,Дворовая территория,237461.0,4,55.702455501972494,37.664293266921845
102854,Дворовая территория,237461.0,4,55.70382793817801,37.66608953620101
102857,Дворовая территория,237461.0,4,55.71382329962324,37.60817324257694
102859,Дворовая территория,237462.0,4,55.716899,37.610431
102860,Дворовая территория,237467.0,4,55.660176,37.615425
102861,Дворовая территория,237467.0,4,55.661623,37.615569
102863,Спортивный клуб «Инби»,,3,55.78598321642778,37.60559906981764
102864,Спортивный комплекс образовательного учреждения «служебный»,219376.0,4,55.717568,37.614832
102866,Дворовая территория,237459.0,4,55.585784,37.649004
102867,Спортивный зал «Спортивный фонд молодёжи «Рико»,237339.0,3,55.75373825066009,37.64219932518921
102868,Дворовая территория,237459.0,4,55.588618,37.642231
102870,Дворовая территория,237459.0,4,55.587423,37.651565
102871,Дворовая территория,237459.0,4,55.588176,37.643399
102873,Дворовая территория,237459.0,4,55.58887289544136,37.640129392629966
102875,Детский досуговый центр «Спортивный клуб «Форвард»»,,3,55.78668800265229,37.5910962045963
102876,Дворовая территория,237459.0,4,55.595781,37.646085
102882,Дворовая территория,237459.0,4,55.590526,37.642501
102884,Спортивный зал «Техно-Консалт»,237427.0,3,55.75022683225502,37.5800310185263
102885,Дворовая территория,237467.0,4,55.645735,37.60832
102887,Дворовая территория,237467.0,4,55.646823,37.617159
102889,Дворовая территория,237467.0,4,55.646812,37.616027
102893,Дворовая территория,237471.0,4,55.62623480115468,37.59826705939451
102894,Досуговый центр «Орбита»,237429.0,3,55.737497,37.629304
102896,Дворовая территория,237471.0,4,55.62791848506064,37.59641956438382
102898,Дворовая территория,237471.0,4,55.63903864484198,37.607848687038526
102899,Дворовая территория,237472.0,4,55.6202966657888,37.59560746050268
102900,Дворовая территория,237472.0,4,55.62100506184407,37.59589809647484
102901,Фитнес-клуб «Джаст джим»,,3,55.8390044146082,37.37880624800112
102902,Дворовая территория,237472.0,4,55.6209044430309,37.59682687439053
102903,Дворовая территория,237472.0,4,55.615057184309975,37.5939938137345
102904,Досуговый центр «Стимул»,237431.0,3,55.7432498495906,37.68616138159138
102905,Дворовая территория,237472.0,4,55.6161166520787,37.59104233377886
102906,Дворовая территория,237472.0,4,55.60805814348113,37.59543896692494
102907,Дворовая территория,237472.0,4,55.61130278435861,37.58987481231103
102913,Дворовая территория,237472.0,4,55.607659045156765,37.591354340065685
102914,Дворовая территория,237472.0,4,55.60743258660739,37.58747179190349
102915,ГБУ «Центр» филиал Красносельский,237339.0,3,55.78166059474008,37.67303344281788
102918,Дворовая территория,237473.0,4,55.60421630477965,37.584160829950335
102920,Дворовая территория,237473.0,4,55.60080436389453,37.5914981522289
102921,Дворовая территория,237473.0,4,55.60112837618257,37.585278724720126
102926,Дворовая территория,237473.0,4,55.597671742541074,37.581930291301205
102929,Дворовая территория,237418.0,4,55.84695007443436,37.34162934039711
102940,Спортивный комплекс высшего учебного заведения «Московский гуманитарный педагогический институт»,266981.0,2,55.773028873406446,37.61437697521351
102941,Спортивный комплекс высшего учебного заведения «Государственная классическая академия им. Маймонида»,219376.0,2,55.74340472179379,37.63821353567318
102946,Дворовая территория,237467.0,4,55.651989,37.617779
102950,Дворовая территория,237468.0,4,55.619269,37.707054
102951,Дворовая территория,237468.0,4,55.617307,37.702751
102955,Дворовая территория,237421.0,4,55.799451,37.39214
102956,Спортивный комплекс среднего профессионального образовательного учреждения «ГБПОУ города Москвы «Юридический колледж»»,219814.0,4,55.62019715185561,37.70693416091009
102957,Фитнес клуб «Экарма-Фитнес»,,3,55.79980598355497,37.40750216784758
102960,Дворовая территория,237468.0,4,55.61805814560802,37.70955744025888
102962,Дворовая территория,237468.0,4,55.621226,37.72219
102965,Дворовая территория,237468.0,4,55.61961809766408,37.72008935681586
102966,Дворовая территория,237468.0,4,55.620136947642585,37.72392306796755
102968,Дворовая территория,237463.0,4,55.623061,37.735431
102971,Дворовая территория,237463.0,4,55.622578,37.740785
102972,Дворовая территория,237463.0,4,55.620286,37.734308
102973,Досуговый центр «Стимул» на Серебряническом переулке,237431.0,3,55.75045761432962,37.6476827509946
102975,Дворовая территория,237463.0,4,55.620342,37.736366
102976,Досуговый центр «В Серебряниках»,237431.0,3,55.750444,37.647208
102977,Дворовая территория,237468.0,4,55.61873651710779,37.70250276530918
102978,Дворовая территория,237463.0,4,55.620886,37.740058
102980,Дворовая территория,237463.0,4,55.62394373973645,37.74973945995157
102981,Дворовая территория,237469.0,4,55.604737,37.706973
102984,Дворовая территория,237463.0,4,55.621709,37.748439
102986,Дворовая территория,237463.0,4,55.622965,37.753667
102987,Дворовая территория,237468.0,4,55.61432617176792,37.698210475770416
102990,Дворовая территория,237468.0,4,55.613499,37.702607
102993,Дворовая территория,237469.0,4,55.603883,37.707763
102994,Дворовая территория,237469.0,4,55.605999,37.706676
102995,Комплекс спортивных сооружений «Спортивный комплекс Вершина»,237335.0,2,55.60046110195688,37.7071927448706
102996,Дворовая территория,237458.0,4,55.60088170281302,37.666649095289806
102999,Дворовая территория,237458.0,4,55.60152184198135,37.65468575630633
103000,Спортивный комплекс образовательного учреждения,219814.0,4,55.76918413797283,37.668254466270426
103006,Фитнес клуб «Ворлд класс лайт»,,3,55.85081910344933,37.35935924854058
103012,Фитнес клуб «Свим»,,3,55.7636111513756,37.56754355226058
103016,Дворовая территория,237469.0,4,55.603064,37.742214
103017,Дворовая территория,237469.0,4,55.606807,37.741809
103018,Дворовая территория,237469.0,4,55.60759,37.743354
103019,Фитнес клуб «Лес Троис Сантес»,,3,55.76617095888771,37.61153542319057
103023,Стадион (менее 1500 мест) «Стадион «Слава»,266599.0,2,55.78123772721914,37.605799375851824
103028,Фитнес клуб Парк Тауэр,,3,55.74030832910391,37.66351830952247
103029,Парк (озелененная городская территория) «Детский парк «имени Прямикова»»,237332.0,2,55.74111108849701,37.66291215500442
103030,Физкультурно-оздоровительный комплекс «ГБУ «Парк культуры и отдыха «Таганский»,237332.0,3,55.738561,37.666162
103031,Досуговый центр «Ковчег»,237339.0,3,55.7638097830172,37.60894237759832
103032,Фитнес клуб ГЕРАКЛ,,3,55.76420776979463,37.609009105093925
103033,Фитнес клуб «Ворлд класс»,,3,55.75127009100423,37.53235182913721
103034,Спортивный зал «Спортивно-технический клуб «Восход»,,3,55.78606810007168,37.59872966801577
103037,Дворовая территория,237424.0,4,55.77092045908001,37.58461908385328
103054,Физкультурно-оздоровительный комплекс с бассейном «Чайка»,,3,55.735885,37.59719
103057,Досуговый центр «Согласие»,,3,55.74285455091836,37.660689528801846
103058,Спортивный зал «На Арбате»,,3,55.74714575334145,37.58713465960624
103059,"Досуговый центр «Арбат», филиал ГБУ «Центр»",237339.0,3,55.75477534788261,37.587637486164255
103060,Фитнес клуб «Балчуг Кемпински Москва»,,3,55.74823486047619,37.625876457550575
103094,Фитнес клуб «Атлетик-А»,,3,55.796025,37.494072
103101,Парк (озелененная городская территория) «Зона отдыха «Белое озеро»,237335.0,2,55.7171936542852,37.84903126676386
103102,Досуговый центр «Крылья»,237347.0,3,55.83342778223423,37.42249377661644
103103,Досуговый центр «Возрождение»,219782.0,3,55.78135076509235,37.45477010758039
103104,Досуговый центр «Щукинец»,237332.0,3,55.792144,37.455031
103110,Досуговый центр «Возрождение»,219782.0,3,55.778952,37.49011
103111,ГБУ ЦДМСИ «КРЫЛЬЯ»,237347.0,3,55.855192432030655,37.41563428716029
103114,Фитнес клуб «Терраспорт Коперник»,,3,55.73829336025899,37.61375535484614
103118,Шахматный клуб «Октябрьский»,237339.0,3,55.73571417103902,37.6187942841716
103120,Фитнес клуб «Атлетик»,,3,55.746214410114064,37.82250338041974
103121,Фитнес клуб Водолей,,3,55.75257094860702,37.63213297394758
103128,Досуговый центр «Южное измайлово»,237388.0,3,55.77945175360606,37.82576609455051
103131,Досуговый центр «Новые социальные и педагогические технологии»,266698.0,3,55.722228,37.564769
103132,Молодежный центр культуры и спорта «Единение»,237342.0,3,55.75842080773469,37.839113949199
103135,Фитнес клуб «Ворлд Класс»,,3,55.76163485128333,37.658084132823305
103137,Фитнес клуб «Ла Салюте»,,3,55.74324632989144,37.65616220838039
103151,Фитнес клуб «Ворлд класс»,,3,55.76739059575426,37.56804825474005
103156,Спортивный комплекс образовательного учреждения «Московская центральная художественная школа при Российской академии художеств»,266981.0,4,55.731982,37.607529
103161,Досуговый центр «Дружба - 2»,237424.0,3,55.76050513933988,37.57236780437984
103164,Лесопарковая зона «Лосиный остров»,263004.0,2,55.82875796575081,37.79906399005016
103166,Парк народный «Лесопарковая зона «Новогиреево»,237392.0,3,55.749071,37.829503
103167,Спортивный городок «Лужники»,,1,55.724885,37.546066
103168,Фитнес-клуб «Мультиспорт»,,3,55.721392,37.549435
103169,Большая спортивная арена «Лужники»,,1,55.715677,37.552166
103170,Государственное автономное учреждение культуры города Москвы «Центральный парк культуры и отдыха имени М. Горького»,237332.0,1,55.73003622481538,37.60186896029661
103171,Южный спортивный центр «Лужники»,,2,55.71440285559213,37.56056361705729
103172,Универсальный спортивный зал «Дружба»,,1,55.71253649145985,37.56652915931952
103173,Дворец водных видов спорта «Лужники»,,1,55.71288927232232,37.55888416986461
103174,Малая спортивная арена «Лужники»,,1,55.71814699999377,37.54952076686477
103175,Дворец спорта «Лужники»,,1,55.722289,37.547477
103176,Спортивный зал «Клуб «Самбо-80»»,237339.0,3,55.73433135657776,37.61649942880783
103177,Фитнес клуб «Планета Фитнес»,,3,55.767830908254055,37.60667533900566
103178,Фитнес клуб «Йога-Практика»,,3,55.73614730020911,37.65418546224592
103179,Досуговый центр «Тигренок»,237431.0,3,55.7361418665954,37.65415791868201
103180,Фитнес клуб «ОнегинЪ»,,3,55.73603336185594,37.61662926740709
103182,Северный спортивный центр «Лужники»,,2,55.7198505908793,37.552492927576445
103184,Стадион «Металлург»,,1,55.77524007691329,37.70235766829454
103190,Досуговый центр «Самбо» им. А.А. Харлампиева,237432.0,3,55.74310679996453,37.59958118943725
103193,Стадион (менее 1500 мест) «Буревестник»,260857.0,2,55.73677357610918,37.57571164550222
103195,Досуговый центр «Дружба»,237424.0,3,55.76054480650805,37.572508344173386
103196,Досуговый центр «Десантник»,237339.0,3,55.74030000891985,37.58938020243735
103198,Спортивный комплекс высшего учебного заведения «служебный»,,2,55.762596016451845,37.68260679730679
103200,Досуговый центр «Юность»,237433.0,3,55.743156065781285,37.61404797706773
103204,Многофункциональный спортивный комплекс «Центр спортивных технологий и сборных команд»,219165.0,1,55.78707307430818,37.617356469905104
103213,Досуговый центр «Родина»,237347.0,3,55.849953247886106,37.451943595614445
103219,Стадион «Красный Октябрь»,219165.0,2,55.82832371269544,37.44289534323883
103220,Фитнес клуб «Время спорта Оранж»,,3,55.848357,37.364966
103221,Досуговый центр «Крылья»,237347.0,3,55.85787756709461,37.34937302356842
103222,Досуговый центр «Ростки»,237417.0,3,55.89204365845033,37.38251604872875
103224,Спортивный клуб «Северо-Запад»,219165.0,3,55.78749780341731,37.47679944357339
103225,Досуговый центр «Щукинец»,237332.0,3,55.789315,37.477085
103226,Многофункциональный комплекс «Сходня»,219165.0,3,55.84382064192224,37.42288612727605
103231,Физкультурно-оздоровительный комплекс «Новая лига»,,3,55.792028023704844,37.62189466137664
103232,Фитнес клуб «Банана Джим»,,3,55.73009142606341,37.67985213349182
103234,Фитнес клуб «Джим фитнес студио»,,3,55.774730091600496,37.68593819500212
103235,Конноспортивная база «Русь»,,1,55.8738414000411,37.43405042260776
103242,Досуговый центр «Гранит»,237339.0,3,55.76153252531301,37.64864852626705
103245,Фитнес клуб «Ист-Вест фитнесс энд Пилатес Студио»,,3,55.729901506719,37.57603476902529
103247,Досуговый центр «Мастер-класс»,237432.0,3,55.73282574557606,37.59464433295475
103248,Спортивный клуб Красная Пресня,237424.0,3,55.758163498863865,37.55468966721747
103250,Спортивный зал «Кодокан»,237428.0,3,55.760211,37.643767
103252,Досуговый центр «Ольга»,,3,55.74752073119296,37.67397935473858
103256,Дворовая территория,237445.0,4,55.70023169133954,37.68040231237735
103257,Досуговый центр «Южное Бутово»,237336.0,3,55.53674521547086,37.58059057088126
103263,Спортивный зал «Обыкновенное чудо»,,3,55.61047366300911,37.536531677901024
103265,Досуговый центр «Южное Бутово»,237456.0,3,55.543638,37.544342
103267,Досуговый центр «Снежинка»,237354.0,3,55.818043,37.509298
103269,Спортивный комплекс учреждения социальной защиты населения «ГБУ Центр реабилитации инвалидов Бутово»,237336.0,3,55.53993273447267,37.5376751565824
103270,Дворовая территория,237456.0,4,55.54389526789081,37.52247727311983
103274,Бассейн плавательный «МГУ»,219376.0,3,55.690136,37.595321
103276,Фитнес клуб «Зебра»,,3,55.84793881511672,37.5644295831069
103277,Бассейн плавательный «Спортивный клуб ДСК № 1»,,3,55.771347,37.536544
103280,Физкультурно-оздоровительный комплекс Академии Управления МВД РФ,259812.0,2,55.82157496684546,37.507042365081766
103286,Физкультурно-оздоровительный комплекс «Учебно-спортивная база ЦСКА»,259810.0,3,55.792417,37.517994
103287,Муниципальное бюджетное учреждение «Спортивно-досуговый центр Сокол»,266698.0,3,55.79407526821056,37.51361835788633
103289,Досуговый центр «Южное Бутово»,237336.0,3,55.54969469185886,37.54437548016328
103290,Физкультурно-досуговый центр «Русь»,237352.0,3,55.787550609858855,37.577375426644345
103294,Дворовая территория,237361.0,4,55.814482,37.562021
103295,Физкультурно-оздоровительный комплекс с бассейном «Психоневрологический интернат № 20»,237336.0,3,55.6553144641076,37.51485389265195
103297,Спортивный комплекс учреждения социальной защиты населения «Территориальный центр социального обслуживания «Ломоносовский» филиал «Обручевский»,237336.0,3,55.6631676019472,37.52042803965993
103306,Досуговый центр «Досугово-спортивный центр семьи и молодежи «ИСТОК»,237353.0,3,55.87424916423784,37.537727739111446
103309,Спортивный комплекс учреждения социальной защиты населения «Территориальный центр социального обслуживания «Зюзино» филиал «Черемушки»,237336.0,3,55.66417897894662,37.55090484170849
103310,Досуговый центр «Региональная общественная организация «Спортивный клуб «МЕДВЕДЬ»,266698.0,3,55.872634452715474,37.5399217858448
103311,Досуговый центр «Автономная некоммерческая организация «Спортивный клуб «ГРИФ»,237353.0,3,55.87237899786938,37.53851210582886
103316,Фитнес клуб «Ворлд Класс»,,3,55.66352331006176,37.549664931806014
103318,Тимирязевский лесопарк,259811.0,2,55.828147,37.531981
